Code gare;IntitulÌ© gare;Nombre plateformes;Segment DRG;UIC;UnitÌ© gare;TVS;Code postal;Commune;DÌ©partement - Commune;DÌ©partement;RÌ©gion;Agence G&C;RÌ©gion SNCF;Niveau de service;Longitude WGS 84;Latitude WGS 84;Date fin validitÌ© gare
1;LycÌ©e Henri Sellier;1;b;87988717;;LHS;93190;Livry-Gargan;93-046;Seine-Saint-Denis;Ì_le-de-France;AG Ile-de-France;REGION DE PARIS-EST;;2.51504;48.91646;
2;Remise ÌÊ Jorelle;1;b;87988709;;RJL;93140;Bondy;93-010;Seine-Saint-Denis;Ì_le-de-France;AG Ile-de-France;REGION DE PARIS-EST;;2.487751;48.893170;
4;CerbÌ¬re;1;c;87785006;;CER;66290;CerbÌ¬re;66-048;PyrÌ©nÌ©es-Orientales;Languedoc-Roussillon;AG MÌ©diterranÌ©e;REGION LANGUEDOC-ROUSSILLON;1;3.1634033;42.4417732;
5;Bena Fanes;1;c;87784892;;BFA;66760;Enveitg;66-066;PyrÌ©nÌ©es-Orientales;Languedoc-Roussillon;AG MÌ©diterranÌ©e;REGION LANGUEDOC-ROUSSILLON;1;1.9167264;42.4580782;
6;Ur les Escaldes;1;c;87784884;;URL;66760;Ur;66-218;PyrÌ©nÌ©es-Orientales;Languedoc-Roussillon;AG MÌ©diterranÌ©e;REGION LANGUEDOC-ROUSSILLON;1;1.9404821;42.457481;
7;Bourg-Madame;1;c;87784876;;BMD;66760;Bourg-Madame;66-025;PyrÌ©nÌ©es-Orientales;Languedoc-Roussillon;AG MÌ©diterranÌ©e;REGION LANGUEDOC-ROUSSILLON;1;1.9486704;42.4324069;
8;OssÌ©ja;1;c;87784868;;OSA;66340;OssÌ©ja;66-130;PyrÌ©nÌ©es-Orientales;Languedoc-Roussillon;AG MÌ©diterranÌ©e;REGION LANGUEDOC-ROUSSILLON;1;1.9771166;42.4199665;
9;Sainte-LÌ©ocadie;1;c;87784850;;XLE;66800;Sainte-LÌ©ocadie;66-181;PyrÌ©nÌ©es-Orientales;Languedoc-Roussillon;AG MÌ©diterranÌ©e;REGION LANGUEDOC-ROUSSILLON;1;2.0104348;42.4411844;
10;Err;1;c;87784843;;ERR;66800;Err;66-067;PyrÌ©nÌ©es-Orientales;Languedoc-Roussillon;AG MÌ©diterranÌ©e;REGION LANGUEDOC-ROUSSILLON;1;2.0290375;42.442777;
11;Saillagouse;1;c;87784835;;SGW;66800;Saillagouse;66-167;PyrÌ©nÌ©es-Orientales;Languedoc-Roussillon;AG MÌ©diterranÌ©e;REGION LANGUEDOC-ROUSSILLON;1;2.0321126;42.4568855;
12;Estavar;1;c;87784827;;EAA;66800;Estavar;66-072;PyrÌ©nÌ©es-Orientales;Languedoc-Roussillon;AG MÌ©diterranÌ©e;REGION LANGUEDOC-ROUSSILLON;1;2.0179071;42.4632434;
13;Font-Romeu-Odeillo-Via;1;c;87784819;;FRM;66120;Font-Romeu-Odeillo-Via;66-124;PyrÌ©nÌ©es-Orientales;Languedoc-Roussillon;AG MÌ©diterranÌ©e;REGION LANGUEDOC-ROUSSILLON;1;2.0383917;42.4912317;
14;BolquÌ¬re - Eyne;1;c;87784801;;BQE;66210;Cabanasse;66-027;PyrÌ©nÌ©es-Orientales;Languedoc-Roussillon;AG MÌ©diterranÌ©e;REGION LANGUEDOC-ROUSSILLON;1;2.0875591;42.4978734;
15;Mont-Louis - La Cabanasse;1;c;87784793;;MTC;66210;Cabanasse;66-027;PyrÌ©nÌ©es-Orientales;Languedoc-Roussillon;AG MÌ©diterranÌ©e;REGION LANGUEDOC-ROUSSILLON;1;2.1131379;42.5020902;
16;PlanÌ¬s;1;c;87784785;;PNW;66210;PlanÌ¬s;66-142;PyrÌ©nÌ©es-Orientales;Languedoc-Roussillon;AG MÌ©diterranÌ©e;REGION LANGUEDOC-ROUSSILLON;1;2.1369269;42.5009185;
17;Sauto;1;c;87784777;;TOX;66210;Sauto;66-192;PyrÌ©nÌ©es-Orientales;Languedoc-Roussillon;AG MÌ©diterranÌ©e;REGION LANGUEDOC-ROUSSILLON;1;2.1600389;42.5063705;
18;FontpÌ©drouse Saint-Thomas les Bains;1;c;87784769;;FTB;66360;FontpÌ©drouse;66-080;PyrÌ©nÌ©es-Orientales;Languedoc-Roussillon;AG MÌ©diterranÌ©e;REGION LANGUEDOC-ROUSSILLON;1;2.1886585;42.5138062;
19;ThuÌ¬s CarenÌ¤a;1;c;87784751;;THG;66360;ThuÌ¬s-Entre-Valls;66-209;PyrÌ©nÌ©es-Orientales;Languedoc-Roussillon;AG MÌ©diterranÌ©e;REGION LANGUEDOC-ROUSSILLON;1;2.2227279;42.5229486;
20;ThuÌ¬s les Bains;1;c;87784744;;THB;66360;Canaveilles;66-036;PyrÌ©nÌ©es-Orientales;Languedoc-Roussillon;AG MÌ©diterranÌ©e;REGION LANGUEDOC-ROUSSILLON;1;2.249094;42.5288009;
21;Nyer;1;c;87784736;;NYE;66360;Nyer;66-123;PyrÌ©nÌ©es-Orientales;Languedoc-Roussillon;AG MÌ©diterranÌ©e;REGION LANGUEDOC-ROUSSILLON;1;2.2630177;42.5416979;
22;Olette - Canaveilles les Bains;1;c;87784728;;OLE;66360;Olette;66-125;PyrÌ©nÌ©es-Orientales;Languedoc-Roussillon;AG MÌ©diterranÌ©e;REGION LANGUEDOC-ROUSSILLON;1;2.2719309;42.55472;
23;Joncet;1;c;87784710;;JCT;66193;Serdinya;66-193;PyrÌ©nÌ©es-Orientales;Languedoc-Roussillon;AG MÌ©diterranÌ©e;REGION LANGUEDOC-ROUSSILLON;1;2.3111464;42.5615245;
24;Serdinya;1;c;87784702;;ZDI;66360;Serdinya;66-193;PyrÌ©nÌ©es-Orientales;Languedoc-Roussillon;AG MÌ©diterranÌ©e;REGION LANGUEDOC-ROUSSILLON;1;2.3230869;42.567023;
25;Villefranche - Vernet-les-Bains;1;b;87784686;;VVB;66820;Villefranche-de-Conflent;66-223;PyrÌ©nÌ©es-Orientales;Languedoc-Roussillon;AG MÌ©diterranÌ©e;REGION LANGUEDOC-ROUSSILLON;1;2.370396;42.591998;
26;Ria;1;c;87784660;;RAJ;66500;Ria-Sirach;66-161;PyrÌ©nÌ©es-Orientales;Languedoc-Roussillon;AG MÌ©diterranÌ©e;REGION LANGUEDOC-ROUSSILLON;1;2.3907488;42.6034078;
27;Prades - Molitg-les-Bains;1;c;87784637;;PDS;66500;Prades;66-149;PyrÌ©nÌ©es-Orientales;Languedoc-Roussillon;AG MÌ©diterranÌ©e;REGION LANGUEDOC-ROUSSILLON;1;2.4294184;42.6170988;
28;Marquixanes;1;c;87784629;;MQG;66320;Marquixanes;66-103;PyrÌ©nÌ©es-Orientales;Languedoc-Roussillon;AG MÌ©diterranÌ©e;REGION LANGUEDOC-ROUSSILLON;1;2.4858388;42.6428224;
29;VinÌ¤a;1;c;87784611;;VCA;66320;VinÌ¤a;66-230;PyrÌ©nÌ©es-Orientales;Languedoc-Roussillon;AG MÌ©diterranÌ©e;REGION LANGUEDOC-ROUSSILLON;1;2.5276163;42.6481368;
30;Ille-sur-TÌ»t;1;c;87784561;;ILL;66130;Ille-sur-TÌ»t;66-088;PyrÌ©nÌ©es-Orientales;Languedoc-Roussillon;AG MÌ©diterranÌ©e;REGION LANGUEDOC-ROUSSILLON;1;2.6242863;42.6682396;
31;Millas;1;c;87784546;;MYR;66170;Millas;66-108;PyrÌ©nÌ©es-Orientales;Languedoc-Roussillon;AG MÌ©diterranÌ©e;REGION LANGUEDOC-ROUSSILLON;1;2.6937502;42.6888961;
32;Saint-FÌ©liu-d'Avall;1;c;87784520;;FDL;66170;Saint-FÌ©liu-d'Avall;66-174;PyrÌ©nÌ©es-Orientales;Languedoc-Roussillon;AG MÌ©diterranÌ©e;REGION LANGUEDOC-ROUSSILLON;1;2.7378217;42.6772874;
33;Le Soler;1;c;87784512;;LSL;66270;Soler;66-195;PyrÌ©nÌ©es-Orientales;Languedoc-Roussillon;AG MÌ©diterranÌ©e;REGION LANGUEDOC-ROUSSILLON;1;2.7930798;42.6787626;
34;Banyuls-sur-Mer;1;c;87784298;;BAN;66650;Banyuls-sur-Mer;66-016;PyrÌ©nÌ©es-Orientales;Languedoc-Roussillon;AG MÌ©diterranÌ©e;REGION LANGUEDOC-ROUSSILLON;1;3.1250496;42.4829582;
35;Port-Vendres;1;c;87784264;;POV;66660;Port-Vendres;66-148;PyrÌ©nÌ©es-Orientales;Languedoc-Roussillon;AG MÌ©diterranÌ©e;REGION LANGUEDOC-ROUSSILLON;1;3.1025762;42.5136077;
36;Collioure;1;c;87784256;;COX;66190;Collioure;66-053;PyrÌ©nÌ©es-Orientales;Languedoc-Roussillon;AG MÌ©diterranÌ©e;REGION LANGUEDOC-ROUSSILLON;1;3.0782319;42.5269437;
37;ArgelÌ¬s-sur-Mer;1;b;87784231;;AMR;66700;ArgelÌ¬s-sur-Mer;66-008;PyrÌ©nÌ©es-Orientales;Languedoc-Roussillon;AG MÌ©diterranÌ©e;REGION LANGUEDOC-ROUSSILLON;1;3.022349;42.543970;
38;Elne;1;c;87784207;;ELN;66200;Elne;66-065;PyrÌ©nÌ©es-Orientales;Languedoc-Roussillon;AG MÌ©diterranÌ©e;REGION LANGUEDOC-ROUSSILLON;1;2.9635851;42.5971138;
39;Rivesaltes;1;c;87784173;;RVT;66600;Rivesaltes;66-164;PyrÌ©nÌ©es-Orientales;Languedoc-Roussillon;AG MÌ©diterranÌ©e;REGION LANGUEDOC-ROUSSILLON;1;2.86789;42.7664405;
40;Salses;1;c;87784157;;SAL;66600;Salses-le-ChÌ¢teau;66-190;PyrÌ©nÌ©es-Orientales;Languedoc-Roussillon;AG MÌ©diterranÌ©e;REGION LANGUEDOC-ROUSSILLON;1;2.9174466;42.8356091;
41;Perpignan;1;a;87784009;;PPN;66027;Perpignan;66-136;PyrÌ©nÌ©es-Orientales;Languedoc-Roussillon;AG MÌ©diterranÌ©e;REGION LANGUEDOC-ROUSSILLON;2; 2.879779;42.696292;
42;Laissac;1;c;87783761;;LVY;12310;Laissac;12-120;Aveyron;Midi-PyrÌ©nÌ©es;AG Sud-Ouest;REGION MIDI PYRENEES;1;2.8222251;44.3750307;
43;Belvezet;1;c;87783670;;BVZ;48170;Belvezet;48-023;LozÌ¬re;Languedoc-Roussillon;AG MÌ©diterranÌ©e;REGION LANGUEDOC-ROUSSILLON;1;3.7518919;44.5617971;
44;Allenc;1;c;87783654;;AEN;48190;Allenc;48-003;LozÌ¬re;Languedoc-Roussillon;AG MÌ©diterranÌ©e;REGION LANGUEDOC-ROUSSILLON;1;3.6638926;44.541296;
45;Bagnols - Chadenet;1;c;87783647;;BCT;48190;Allenc;48-003;LozÌ¬re;Languedoc-Roussillon;AG MÌ©diterranÌ©e;REGION LANGUEDOC-ROUSSILLON;1;3.628178;44.5286125;
46;Mende;1;c;87783605;;MDE;48000;Mende;48-095;LozÌ¬re;Languedoc-Roussillon;AG MÌ©diterranÌ©e;REGION LANGUEDOC-ROUSSILLON;1;3.5019875;44.522322;
47;Barjac;1;c;87783563;;BJC;48000;Barjac;48-018;LozÌ¬re;Languedoc-Roussillon;AG MÌ©diterranÌ©e;REGION LANGUEDOC-ROUSSILLON;1;3.4109786;44.4992638;
48;Le Bruel;1;c;87783548;;BWQ;48056;EsclanÌ¬des;48-056;LozÌ¬re;Languedoc-Roussillon;AG MÌ©diterranÌ©e;REGION LANGUEDOC-ROUSSILLON;1;3.358325;44.4813286;
49;Chanac;1;c;87783530;;CNA;48230;Chanac;48-039;LozÌ¬re;Languedoc-Roussillon;AG MÌ©diterranÌ©e;REGION LANGUEDOC-ROUSSILLON;1;3.3454117;44.4739786;
50;Les Salelles;1;c;87783514;;SQL;48230;Salelles;48-185;LozÌ¬re;Languedoc-Roussillon;AG MÌ©diterranÌ©e;REGION LANGUEDOC-ROUSSILLON;1;3.2804008;44.4832687;
51;Tournemire - Roquefort;1;c;87783456;;TEO;12250;Tournemire;12-282;Aveyron;Midi-PyrÌ©nÌ©es;AG Sud-Ouest;REGION LANGUEDOC-ROUSSILLON;1;3.0166261;43.9698002;
52;Saint-Rome-de-Cernon;1;c;87783431;;SDO;12490;Saint-Rome-de-Cernon;12-243;Aveyron;Midi-PyrÌ©nÌ©es;AG Sud-Ouest;REGION LANGUEDOC-ROUSSILLON;1;2.9673744;44.013981;
53;Saint-Georges-de-LuzenÌ¤on;1;c;87783423;;SDU;12100;Saint-Georges-de-LuzenÌ¤on;12-225;Aveyron;Midi-PyrÌ©nÌ©es;AG Sud-Ouest;REGION LANGUEDOC-ROUSSILLON;1;2.983784;44.066553;
54;SÌ©vÌ©rac-le-ChÌ¢teau;1;c;87783365;;SVC;12150;SÌ©vÌ©rac-le-ChÌ¢teau;12-270;Aveyron;Midi-PyrÌ©nÌ©es;AG Sud-Ouest;REGION LANGUEDOC-ROUSSILLON;1;3.0569451;44.3246516;
55;Campagnac - Saint-Geniez;1;c;87783340;;CNT;12560;Campagnac;12-047;Aveyron;Midi-PyrÌ©nÌ©es;AG Sud-Ouest;REGION LANGUEDOC-ROUSSILLON;1;3.0664008;44.4219559;
56;Banassac - La Canourgue;1;c;87783324;;BAA;48500;Banassac;48-017;LozÌ¬re;Languedoc-Roussillon;AG MÌ©diterranÌ©e;REGION LANGUEDOC-ROUSSILLON;1;3.1958518;44.4477632;
57;Le Monastier;1;c;87783308;;LMR;48100;Monastier-Pin-MoriÌ¬s;48-099;LozÌ¬re;Languedoc-Roussillon;AG MÌ©diterranÌ©e;REGION LANGUEDOC-ROUSSILLON;1;3.252057;44.5089682;
58;Chirac;1;c;87783290;;CAC;48100;Chirac;48-049;LozÌ¬re;Languedoc-Roussillon;AG MÌ©diterranÌ©e;REGION LANGUEDOC-ROUSSILLON;1;3.2638181;44.5246607;
59;Marvejols;1;c;87783282;;MVJ;48100;Marvejols;48-092;LozÌ¬re;Languedoc-Roussillon;AG MÌ©diterranÌ©e;REGION LANGUEDOC-ROUSSILLON;1;3.2810718;44.5446819;
60;Aumont-Aubrac;1;c;87783266;;AAU;48130;Aumont-Aubrac;48-009;LozÌ¬re;Languedoc-Roussillon;AG MÌ©diterranÌ©e;REGION LANGUEDOC-ROUSSILLON;1;3.2835489;44.7181699;
61;Saint-ChÌ©ly-d'Apcher;1;c;87783241;;SYH;48200;Saint-ChÌ©ly-d'Apcher;48-140;LozÌ¬re;Languedoc-Roussillon;AG MÌ©diterranÌ©e;REGION LANGUEDOC-ROUSSILLON;1;3.2706895;44.8017375;
62;Saint-Flour - Chaudes-Aigues;1;c;87783175;;SFC;15100;Saint-Flour;15-187;Cantal;Auvergne;AG Centre Est RhÌ«ne Alpin;REGION AUVERGNE;1;3.1062862;45.0350122;
63;Millau;1;b;87783001;;MAU;12100;Millau;12-145;Aveyron;Midi-PyrÌ©nÌ©es;AG Sud-Ouest;REGION LANGUEDOC-ROUSSILLON;1;3.074570;44.102344;
64;Clermont la Pardieu;1;b;87782607;;COP;63000;Clermont-Ferrand;63-113;Puy-de-DÌ«me;Auvergne;AG Centre Est RhÌ«ne Alpin;REGION AUVERGNE;1;3.134163;45.766947;
65;Magalas;1;c;87781666;;MGA;34480;Magalas;34-147;HÌ©rault;Languedoc-Roussillon;AG MÌ©diterranÌ©e;REGION LANGUEDOC-ROUSSILLON;1;3.2295415;43.4675998;
66;BÌ©darieux;1;c;87781609;;BED;34600;BÌ©darieux;34-028;HÌ©rault;Languedoc-Roussillon;AG MÌ©diterranÌ©e;REGION LANGUEDOC-ROUSSILLON;1;3.1495688;43.6086972;
67;Le Bousquet-d'Orb;1;c;87781583;;LBD;34260;Bousquet-d'Orb;34-038;HÌ©rault;Languedoc-Roussillon;AG MÌ©diterranÌ©e;REGION LANGUEDOC-ROUSSILLON;1;3.1689379;43.6912097;
68;Lunas;1;c;87781575;;LKH;34650;Lunas;34-144;HÌ©rault;Languedoc-Roussillon;AG MÌ©diterranÌ©e;REGION LANGUEDOC-ROUSSILLON;1;3.1948986;43.7095814;
69;Les Cabrils;1;c;87781559;;KBI;34233;Roqueredonde;34-233;HÌ©rault;Languedoc-Roussillon;AG MÌ©diterranÌ©e;REGION LANGUEDOC-ROUSSILLON;1;3.1860831;43.779707;
70;Ceilhes - Roqueredonde;1;c;87781542;;COQ;34260;Roqueredonde;34-233;HÌ©rault;Languedoc-Roussillon;AG MÌ©diterranÌ©e;REGION LANGUEDOC-ROUSSILLON;1;3.1551583;43.8122656;
71;Montpaon;1;c;87781534;;MNP;12540;Fondamente;12-155;Aveyron;Midi-PyrÌ©nÌ©es;AG Sud-Ouest;REGION LANGUEDOC-ROUSSILLON;1;3.1097221;43.8685236;
72;Marseillan Plage;1;c;87781294;;MPP;34340;Marseillan;34-150;HÌ©rault;Languedoc-Roussillon;AG MÌ©diterranÌ©e;REGION LANGUEDOC-ROUSSILLON;1;3.5355281;43.3181964;
73;Agde;1;a;87781278;;AGD;34300;Agde;34-003;HÌ©rault;Languedoc-Roussillon;AG MÌ©diterranÌ©e;REGION LANGUEDOC-ROUSSILLON;2; 3.466203;43.317280;
74;Vias;1;c;87781260;;VAB;34450;Vias;34-332;HÌ©rault;Languedoc-Roussillon;AG MÌ©diterranÌ©e;REGION LANGUEDOC-ROUSSILLON;1;3.4253562;43.315653;
75;Nissan;1;c;87781179;;NIS;34440;Nissan-lez-Enserune;34-183;HÌ©rault;Languedoc-Roussillon;AG MÌ©diterranÌ©e;REGION LANGUEDOC-ROUSSILLON;1;3.116678;43.2955681;
76;Coursan;1;c;87781161;;KOS;11110;Coursan;11-106;Aude;Languedoc-Roussillon;AG MÌ©diterranÌ©e;REGION LANGUEDOC-ROUSSILLON;1;3.0510465;43.23369;
77;Narbonne;1;a;87781104;;NBN;11100;Narbonne;11-262;Aude;Languedoc-Roussillon;AG MÌ©diterranÌ©e;REGION LANGUEDOC-ROUSSILLON;2; 3.005910;43.190387;
78;Leucate la Franqui;1;c;87781088;;LEU;11370;Leucate;11-202;Aude;Languedoc-Roussillon;AG MÌ©diterranÌ©e;REGION LANGUEDOC-ROUSSILLON;1;3.0128555;42.9327725;
79;Port-la-Nouvelle;1;c;87781062;;PLN;11210;Port-la-Nouvelle;11-266;Aude;Languedoc-Roussillon;AG MÌ©diterranÌ©e;REGION LANGUEDOC-ROUSSILLON;1;3.0388188;43.0199342;
80;BÌ©ziers;1;a;87781005;;BZS;34500;BÌ©ziers;34-032;HÌ©rault;Languedoc-Roussillon;AG MÌ©diterranÌ©e;REGION LANGUEDOC-ROUSSILLON;2; 3.218873;43.336330;
81;Le Grau-du-Roi;1;c;87775866;;LGR;30240;Grau-du-Roi;30-133;Gard;Languedoc-Roussillon;AG MÌ©diterranÌ©e;REGION LANGUEDOC-ROUSSILLON;1;4.140338;43.5371273;
82;Aigues-Mortes;1;c;87775858;;AIM;30220;Aigues-Mortes;30-003;Gard;Languedoc-Roussillon;AG MÌ©diterranÌ©e;REGION LANGUEDOC-ROUSSILLON;1;4.1912102;43.5709008;
83;Saint-Laurent-d'Aigouze;1;c;87775841;;XLZ;30220;Saint-Laurent-d'Aigouze;30-276;Gard;Languedoc-Roussillon;AG MÌ©diterranÌ©e;REGION LANGUEDOC-ROUSSILLON;1;4.1930703;43.6392883;
84;Aimargues;1;c;87775833;;AIA;30470;Aimargues;30-006;Gard;Languedoc-Roussillon;AG MÌ©diterranÌ©e;REGION LANGUEDOC-ROUSSILLON;1;4.2082933;43.6786107;
85;Le Cailar;1;c;87775825;;LCI;30740;Cailar;30-059;Gard;Languedoc-Roussillon;AG MÌ©diterranÌ©e;REGION LANGUEDOC-ROUSSILLON;1;4.2354236;43.6834141;
86;Vauvert;1;c;87775817;;VAT;30600;Vauvert;30-341;Gard;Languedoc-Roussillon;AG MÌ©diterranÌ©e;REGION LANGUEDOC-ROUSSILLON;1;4.270165;43.6950375;
87;Beauvoisin;1;c;87775809;;BVW;30640;Beauvoisin;30-033;Gard;Languedoc-Roussillon;AG MÌ©diterranÌ©e;REGION LANGUEDOC-ROUSSILLON;1;4.3212178;43.7245026;
88;GÌ©nÌ©rac;1;c;87775791;;GEC;30510;GÌ©nÌ©rac;30-128;Gard;Languedoc-Roussillon;AG MÌ©diterranÌ©e;REGION LANGUEDOC-ROUSSILLON;1;4.3434742;43.7324379;
96;Fons - Saint-Mamert;1;c;87775379;;FMS;30730;Fons;30-112;Gard;Languedoc-Roussillon;AG MÌ©diterranÌ©e;REGION LANGUEDOC-ROUSSILLON;1;4.2066687;43.9073195;
97;Saint-GeniÌ¬s-de-MalgoirÌ¬s;1;c;87775361;;XGE;30190;Saint-GeniÌ¬s-de-MalgoirÌ¬s;30-255;Gard;Languedoc-Roussillon;AG MÌ©diterranÌ©e;REGION LANGUEDOC-ROUSSILLON;1;4.2149416;43.9501684;
98;NoziÌ¬res - Brignon;1;c;87775353;;NOZ;30190;Brignon;30-053;Gard;Languedoc-Roussillon;AG MÌ©diterranÌ©e;REGION LANGUEDOC-ROUSSILLON;1;4.2072916;43.9760134;
99;Boucoiran;1;c;87775346;;BKW;30190;Boucoiran-et-NoziÌ¬res;30-046;Gard;Languedoc-Roussillon;AG MÌ©diterranÌ©e;REGION LANGUEDOC-ROUSSILLON;1;4.187634;43.9926943;
100;AlÌ¬s;1;b;87775288;;ALS;30100;AlÌ¬s;30-007;Gard;Languedoc-Roussillon;AG MÌ©diterranÌ©e;REGION LANGUEDOC-ROUSSILLON;2;4.084948;44.127825;
101;Grand-Combe la Pise;1;c;87775254;;LGC;30110;Grand-Combe;30-132;Gard;Languedoc-Roussillon;AG MÌ©diterranÌ©e;REGION LANGUEDOC-ROUSSILLON;1;4.0329591;44.2098159;
102;La Levade;1;c;87775247;;LLE;30110;Grand-Combe;30-132;Gard;Languedoc-Roussillon;AG MÌ©diterranÌ©e;REGION LANGUEDOC-ROUSSILLON;1;4.0102736;44.228602;
103;Sainte-CÌ©cile-d'Andorge;1;c;87775239;;SCZ;30110;Sainte-CÌ©cile-d'Andorge;30-239;Gard;Languedoc-Roussillon;AG MÌ©diterranÌ©e;REGION LANGUEDOC-ROUSSILLON;1;3.9758497;44.2554362;
104;Chamborigaud;1;c;87775221;;CBO;30530;Chamborigaud;30-080;Gard;Languedoc-Roussillon;AG MÌ©diterranÌ©e;REGION LANGUEDOC-ROUSSILLON;1;3.9793332;44.3002429;
105;GÌ©nolhac;1;c;87775213;;GNC;30450;GÌ©nolhac;30-130;Gard;Languedoc-Roussillon;AG MÌ©diterranÌ©e;REGION LANGUEDOC-ROUSSILLON;1;3.9516407;44.3471626;
106;Villefort;1;c;87775197;;VLF;48800;Villefort;48-198;LozÌ¬re;Languedoc-Roussillon;AG MÌ©diterranÌ©e;REGION LANGUEDOC-ROUSSILLON;1;3.9240146;44.4395099;
107;La Bastide - Saint-Laurent-les-Bains;1;c;87775171;;LBS;48250;Bastide-Puylaurent;48-021;LozÌ¬re;Languedoc-Roussillon;AG MÌ©diterranÌ©e;REGION LANGUEDOC-ROUSSILLON;1;3.9042849;44.5934829;
108;ChasseradÌ¬s;1;c;87775148;;CJD;48250;ChasseradÌ¬s;48-040;LozÌ¬re;Languedoc-Roussillon;AG MÌ©diterranÌ©e;REGION LANGUEDOC-ROUSSILLON;1;3.8399319;44.5539847;
109;Gallargues;1;c;87775130;;GGE;30660;Gallargues-le-Montueux;30-123;Gard;Languedoc-Roussillon;AG MÌ©diterranÌ©e;REGION LANGUEDOC-ROUSSILLON;1;4.1715027;43.716229;
111;VergÌ¬ze - Codognan;1;b;87775114;;VZC;30310;VergÌ¬ze;30-344;Gard;Languedoc-Roussillon;AG MÌ©diterranÌ©e;REGION LANGUEDOC-ROUSSILLON;1;4.218842;43.739877;
112;Uchaud;1;c;87775106;;UCD;30620;Uchaud;30-333;Gard;Languedoc-Roussillon;AG MÌ©diterranÌ©e;REGION LANGUEDOC-ROUSSILLON;1;4.2683101;43.7583991;
113;Milhaud;1;c;87775098;;MHU;30540;Milhaud;30-169;Gard;Languedoc-Roussillon;AG MÌ©diterranÌ©e;REGION LANGUEDOC-ROUSSILLON;1;4.3033268;43.7884886;
114;Saint-CÌ©saire;1;c;87775072;;SCS;30900;Saint-CÌ©saire-de-Gauzignan;30-240;Gard;Languedoc-Roussillon;AG MÌ©diterranÌ©e;REGION LANGUEDOC-ROUSSILLON;1;4.3276399;43.8133863;
115;Manduel - Redessan;1;c;87775064;;UEL;30129;Manduel;30-155;Gard;Languedoc-Roussillon;AG MÌ©diterranÌ©e;REGION LANGUEDOC-ROUSSILLON;1;4.4793827;43.8264863;
117;Beaucaire;1;c;87775023;;BCK;30300;Beaucaire;30-032;Gard;Languedoc-Roussillon;AG MÌ©diterranÌ©e;REGION LANGUEDOC-ROUSSILLON;1;4.6470865;43.80209;
118;NÌ¨mes;1;a;87775007;;NMS;30000;NÌ¨mes;30-189;Gard;Languedoc-Roussillon;AG MÌ©diterranÌ©e;REGION LANGUEDOC-ROUSSILLON;2;4.365845;43.832291;
119;Frontignan;1;b;87773556;;FRN;34110;Frontignan;34-108;HÌ©rault;Languedoc-Roussillon;AG MÌ©diterranÌ©e;REGION LANGUEDOC-ROUSSILLON;1;3.758689;43.444934;
120;Vic - Mireval;1;c;87773531;;VIC;34110;Vic-la-Gardiole;34-333;HÌ©rault;Languedoc-Roussillon;AG MÌ©diterranÌ©e;REGION LANGUEDOC-ROUSSILLON;1;3.7994505;43.5007687;
121;Villeneuve-lÌ¬s-Maguelone;1;c;87773515;;VLM;34750;Villeneuve-lÌ¬s-Maguelone;34-337;HÌ©rault;Languedoc-Roussillon;AG MÌ©diterranÌ©e;REGION LANGUEDOC-ROUSSILLON;1;3.849917;43.5438231;
123;Saint-AunÌ¬s;1;c;87773465;;XAU;34130;Saint-AunÌ¬s;34-240;HÌ©rault;Languedoc-Roussillon;AG MÌ©diterranÌ©e;REGION LANGUEDOC-ROUSSILLON;1;3.9628994;43.6354383;
124;Baillargues;1;c;87773457;;BGU;34670;Baillargues;34-022;HÌ©rault;Languedoc-Roussillon;AG MÌ©diterranÌ©e;REGION LANGUEDOC-ROUSSILLON;1;4.0071585;43.6533234;
126;Valergues - Lansargues;1;c;87773432;;VGU;34130;Valergues;34-321;HÌ©rault;Languedoc-Roussillon;AG MÌ©diterranÌ©e;REGION LANGUEDOC-ROUSSILLON;1;4.0601085;43.672678;
127;Lunel-Viel;1;c;87773424;;LWQ;34400;Lunel-Viel;34-146;HÌ©rault;Languedoc-Roussillon;AG MÌ©diterranÌ©e;REGION LANGUEDOC-ROUSSILLON;1;4.0937398;43.6811729;
128;Lunel;1;b;87773408;;LUN;34400;Lunel;34-145;HÌ©rault;Languedoc-Roussillon;AG MÌ©diterranÌ©e;REGION LANGUEDOC-ROUSSILLON;1;4.131086;43.679392;
129;SÌ¬te;1;a;87773200;;STE;34200;SÌ¬te;34-301;HÌ©rault;Languedoc-Roussillon;AG MÌ©diterranÌ©e;REGION LANGUEDOC-ROUSSILLON;2; 3.696560;43.412485;
130;Montpellier Saint-Roch;1;a;87773002;;MPL;34011;Montpellier;34-172;HÌ©rault;Languedoc-Roussillon;AG MÌ©diterranÌ©e;REGION LANGUEDOC-ROUSSILLON;3;3.880674;43.604738;
131;Entraigues-sur-la-Sorgue;1;c;87765826;;;84700;Entraigues-sur-la-Sorgue;84-043;Vaucluse;Provence-Alpes-CÌ«te d'Azur;AG MÌ©diterranÌ©e;REGION PROVENCE ALPES COTE D'AZUR;;4.9226971;44.0054278;
132;Monteux;1;c;87765818;;;84170;Monteux;84-080;Vaucluse;Provence-Alpes-CÌ«te d'Azur;AG MÌ©diterranÌ©e;REGION PROVENCE ALPES COTE D'AZUR;;4.9947813;44.0374619;
133;Carpentras;1;c;87765735;;;84000;Carpentras;84-031;Vaucluse;Provence-Alpes-CÌ«te d'Azur;AG MÌ©diterranÌ©e;REGION PROVENCE ALPES COTE D'AZUR;;5.044141;44.0499488;
134;Cavaillon;1;b;87765503;;CVN;84300;Cavaillon;84-035;Vaucluse;Provence-Alpes-CÌ«te d'Azur;AG MÌ©diterranÌ©e;REGION PROVENCE ALPES COTE D'AZUR;1;5.043613;43.834554;
135;L'Isle-sur-la-Sorgue - Fontaine-de-Vaucluse;1;b;87765479;;LFV;84800;Isle-sur-la-Sorgue;84-054;Vaucluse;Provence-Alpes-CÌ«te d'Azur;AG MÌ©diterranÌ©e;REGION PROVENCE ALPES COTE D'AZUR;1;5.047615;43.917393;
136;Le Thor;1;c;87765453;;LTH;84250;Thor;84-132;Vaucluse;Provence-Alpes-CÌ«te d'Azur;AG MÌ©diterranÌ©e;REGION PROVENCE ALPES COTE D'AZUR;1;4.9962663;43.9265047;
137;Gadagne;1;c;87765446;;GDA;84470;ChÌ¢teauneuf-de-Gadagne;84-036;Vaucluse;Provence-Alpes-CÌ«te d'Azur;AG MÌ©diterranÌ©e;REGION PROVENCE ALPES COTE D'AZUR;1;4.9568087;43.9296817;
138;Saint-Saturnin-lÌ¬s-Avignon;1;c;87765438;;SSA;84450;Saint-Saturnin-lÌ¬s-Avignon;84-119;Vaucluse;Provence-Alpes-CÌ«te d'Azur;AG MÌ©diterranÌ©e;REGION PROVENCE ALPES COTE D'AZUR;1;4.9352794;43.9531783;
139;MoriÌ¬res-lÌ¬s-Avignon;1;c;87765420;;MVG;84310;MoriÌ¬res-lÌ¬s-Avignon;84-081;Vaucluse;Provence-Alpes-CÌ«te d'Azur;AG MÌ©diterranÌ©e;REGION PROVENCE ALPES COTE D'AZUR;1;4.9082052;43.9414696;
140;Montfavet;1;c;87765412;;MFT;84140;Avignon;84-007;Vaucluse;Provence-Alpes-CÌ«te d'Azur;AG MÌ©diterranÌ©e;REGION PROVENCE ALPES COTE D'AZUR;1;4.873943;43.932635;
141;Tarascon;1;b;87765354;;TCN;13150;Tarascon;13-108;Bouches-du-RhÌ«ne;Provence-Alpes-CÌ«te d'Azur;AG MÌ©diterranÌ©e;REGION PROVENCE ALPES COTE D'AZUR;1;4.657206;43.801331;
142;Sorgues - ChÌ¢teauneuf-du-Pape;1;c;87765206;;;84700;Sorgues;84-129;Vaucluse;Provence-Alpes-CÌ«te d'Azur;AG MÌ©diterranÌ©e;REGION PROVENCE ALPES COTE D'AZUR;1;4.8756182;44.0053909;
143;BÌ©darrides;1;c;87765198;;BDR;84370;BÌ©darrides;84-016;Vaucluse;Provence-Alpes-CÌ«te d'Azur;AG MÌ©diterranÌ©e;REGION PROVENCE ALPES COTE D'AZUR;1;4.8931321;44.0407636;
144;CourthÌ©zon;1;c;87765180;;CTZ;84350;CourthÌ©zon;84-039;Vaucluse;Provence-Alpes-CÌ«te d'Azur;AG MÌ©diterranÌ©e;REGION PROVENCE ALPES COTE D'AZUR;1;4.8881802;44.0899478;
145;Orange;1;b;87765107;;OGE;84100;Orange;84-087;Vaucluse;Provence-Alpes-CÌ«te d'Azur;AG MÌ©diterranÌ©e;REGION PROVENCE ALPES COTE D'AZUR;2;4.819594;44.137304;
146;Avignon Centre;1;b;87765008;;AVI;84000;Avignon;84-007;Vaucluse;Provence-Alpes-CÌ«te d'Azur;AG MÌ©diterranÌ©e;REGION PROVENCE ALPES COTE D'AZUR;2;4.805281;43.941900;
148;Le Teil;1;c;87764472;;;7400;Teil;07-319;ArdÌ¬che;RhÌ«ne-Alpes;AG Centre Est RhÌ«ne Alpin;REGION RHONE-ALPES;1;4.685992;44.5525285;
149;BollÌ¬ne la CroisiÌ¬re;1;b;87764357;;BLN;84500;BollÌ¬ne;84-019;Vaucluse;Provence-Alpes-CÌ«te d'Azur;AG MÌ©diterranÌ©e;REGION PROVENCE ALPES COTE D'AZUR;1;4.707908;44.271525;
150;Pierrelatte;1;b;87764308;;PRL;26700;Pierrelatte;26-235;DrÌ«me;RhÌ«ne-Alpes;AG Centre Est RhÌ«ne Alpin;REGION RHONE-ALPES;1;4.703783;44.374719;
151;DonzÌ¬re;1;c;87764290;;DOE;26290;DonzÌ¬re;26-116;DrÌ«me;RhÌ«ne-Alpes;AG Centre Est RhÌ«ne Alpin;REGION RHONE-ALPES;1;4.7046262;44.4433646;
152;MontÌ©limar;1;a;87764001;;MTR;26200;MontÌ©limar;26-198;DrÌ«me;RhÌ«ne-Alpes;AG Centre Est RhÌ«ne Alpin;REGION RHONE-ALPES;2;4.744792;44.559079;
153;Laragne;1;c;87763755;;LRN;5300;Laragne-MontÌ©glin;05-070;Hautes-Alpes;Provence-Alpes-CÌ«te d'Azur;AG MÌ©diterranÌ©e;REGION PROVENCE ALPES COTE D'AZUR;1;5.8189832;44.3164984;
154;Serres;1;c;87763722;;SRE;5700;Serres;05-166;Hautes-Alpes;Provence-Alpes-CÌ«te d'Azur;AG MÌ©diterranÌ©e;REGION PROVENCE ALPES COTE D'AZUR;1;5.7184201;44.4246573;
155;BrianÌ¤on;1;b;87763607;;BRI;5100;BrianÌ¤on;05-023;Hautes-Alpes;Provence-Alpes-CÌ«te d'Azur;AG MÌ©diterranÌ©e;REGION PROVENCE ALPES COTE D'AZUR;1;6.633007;44.889853;
156;L'ArgentiÌ¬re les Ìäcrins;1;c;87763557;;LEE;5120;ArgentiÌ¬re-la-BessÌ©e;05-006;Hautes-Alpes;Provence-Alpes-CÌ«te d'Azur;AG MÌ©diterranÌ©e;REGION PROVENCE ALPES COTE D'AZUR;1;6.5564162;44.7909802;
157;Mont-Dauphin - Guillestre;1;c;87763508;;MOG;5600;Eygliers;05-052;Hautes-Alpes;Provence-Alpes-CÌ«te d'Azur;AG MÌ©diterranÌ©e;REGION PROVENCE ALPES COTE D'AZUR;1;6.6156027;44.6746283;
158;Embrun;1;b;87763466;;EMB;5200;Embrun;05-046;Hautes-Alpes;Provence-Alpes-CÌ«te d'Azur;AG MÌ©diterranÌ©e;REGION PROVENCE ALPES COTE D'AZUR;1;6.496773;44.567008;
159;Chorges;1;c;87763425;;CHO;5230;Chorges;05-040;Hautes-Alpes;Provence-Alpes-CÌ«te d'Azur;AG MÌ©diterranÌ©e;REGION PROVENCE ALPES COTE D'AZUR;1;6.2718887;44.5458415;
160;Veynes DÌ©voluy;1;c;87763300;;VDY;5400;Veynes;05-179;Hautes-Alpes;Provence-Alpes-CÌ«te d'Azur;AG MÌ©diterranÌ©e;REGION PROVENCE ALPES COTE D'AZUR;1;5.815764;44.5320046;
161;Aspres-sur-BuÌÇch;1;c;87763250;;ASH;5140;Aspres-sur-BuÌÇch;05-010;Hautes-Alpes;Provence-Alpes-CÌ«te d'Azur;AG MÌ©diterranÌ©e;REGION PROVENCE ALPES COTE D'AZUR;1;5.7545655;44.519428;
162;Valence TGV RhÌ«ne-Alpes Sud;1;a;87763029;;VAL;26958;Alixan;26-004;DrÌ«me;RhÌ«ne-Alpes;AG Centre Est RhÌ«ne Alpin;REGION RHONE-ALPES;2;4.978703;44.991545;
163;Gap;1;b;87763003;;GAP;5000;Gap;05-061;Hautes-Alpes;Provence-Alpes-CÌ«te d'Azur;AG MÌ©diterranÌ©e;REGION PROVENCE ALPES COTE D'AZUR;2;6.085638;44.563693;
164;Lyon Saint-ExupÌ©ry TGV;1;a;87762906;;SXA;69125;Colombier-Saugnieu;69-299;RhÌ«ne;RhÌ«ne-Alpes;AG Centre Est RhÌ«ne Alpin;REGION RHONE-ALPES;2; 5.074969;45.721109;
165;Luc-en-Diois;1;c;87761874;;LDE;26310;Luc-en-Diois;26-167;DrÌ«me;RhÌ«ne-Alpes;AG Centre Est RhÌ«ne Alpin;REGION RHONE-ALPES;1;5.4546227;44.6136615;
166;Die;1;c;87761841;;DIE;26150;Die;26-113;DrÌ«me;RhÌ«ne-Alpes;AG Centre Est RhÌ«ne Alpin;REGION RHONE-ALPES;1;5.3632053;44.7582549;
167;Saillans;1;c;87761817;;SIA;26340;Saillans;26-289;DrÌ«me;RhÌ«ne-Alpes;AG Centre Est RhÌ«ne Alpin;REGION RHONE-ALPES;1;5.1940397;44.6944365;
168;Crest;1;c;87761783;;CRE;26400;Crest;26-108;DrÌ«me;RhÌ«ne-Alpes;AG Centre Est RhÌ«ne Alpin;REGION RHONE-ALPES;1;5.0160968;44.7301546;
169;Tullins Fures;1;b;87761759;;TLE;38210;Tullins;38-517;IsÌ¬re;RhÌ«ne-Alpes;AG Centre Est RhÌ«ne Alpin;REGION ALPES;1;5.492194;45.300996;
170;PoliÌ©nas;1;c;87761742;;POS;38210;PoliÌ©nas;38-310;IsÌ¬re;RhÌ«ne-Alpes;AG Centre Est RhÌ«ne Alpin;REGION ALPES;1;5.4735849;45.256006;
171;Vinay;1;b;87761726;;VNA;38470;Vinay;38-559;IsÌ¬re;RhÌ«ne-Alpes;AG Centre Est RhÌ«ne Alpin;REGION ALPES;1;5.41005;45.20797;
172;Saint-Marcellin;1;b;87761718;;SCI;38160;Saint-Marcellin;38-416;IsÌ¬re;RhÌ«ne-Alpes;AG Centre Est RhÌ«ne Alpin;REGION ALPES;1;5.323649;45.150898;
173;Saint-Hilaire - Saint-Nazaire;1;c;87761684;;SHN;38330;Saint-Hilaire-du-Rosier;38-394;IsÌ¬re;RhÌ«ne-Alpes;AG Centre Est RhÌ«ne Alpin;REGION ALPES;1;5.243851;45.0713405;
174;Romans - Bourg-de-PÌ©age;1;b;87761650;;ROM;26300;Romans-sur-IsÌ¬re;26-281;DrÌ«me;RhÌ«ne-Alpes;AG Centre Est RhÌ«ne Alpin;REGION RHONE-ALPES;1;5.049800;45.048857;
175;Loriol;1;c;87761262;;LOL;26270;Loriol-sur-DrÌ«me;26-166;DrÌ«me;RhÌ«ne-Alpes;AG Centre Est RhÌ«ne Alpin;REGION RHONE-ALPES;1;4.8171679;44.7544973;
176;Livron;1;c;87761247;;LIV;26250;Livron-sur-DrÌ«me;26-165;DrÌ«me;RhÌ«ne-Alpes;AG Centre Est RhÌ«ne Alpin;REGION RHONE-ALPES;1;4.8305412;44.7796035;
177;L'Isle-d'Abeau;1;b;87761239;;ISA;38080;Isle-d'Abeau;38-193;IsÌ¬re;RhÌ«ne-Alpes;AG Centre Est RhÌ«ne Alpin;REGION RHONE-ALPES;1;5.219690;45.607645;
178;Tain-l'Hermitage - Tournon;1;b;87761163;;TAI;26600;Tain-l'Hermitage;26-347;DrÌ«me;RhÌ«ne-Alpes;AG Centre Est RhÌ«ne Alpin;REGION RHONE-ALPES;1;4.839967;45.072183;
179;Saint-Vallier sur RhÌ«ne;1;b;87761130;;SUO;26240;Saint-Vallier;26-333;DrÌ«me;RhÌ«ne-Alpes;AG Centre Est RhÌ«ne Alpin;REGION RHONE-ALPES;1;4.814390;45.186395;
180;Saint-Rambert-d'Albon;1;b;87761106;;SRA;26140;Saint-Rambert-d'Albon;26-325;DrÌ«me;RhÌ«ne-Alpes;AG Centre Est RhÌ«ne Alpin;REGION RHONE-ALPES;1;4.810849;45.297797;
181;Valence;1;b;87761007;;VCE;26000;Valence;26-362;DrÌ«me;RhÌ«ne-Alpes;AG Centre Est RhÌ«ne Alpin;REGION RHONE-ALPES;2;4.893273;44.928049;
182;Saint-Joseph le Castellas;1;c;87759316;;XJC;13015;Marseille;13-055;Bouches-du-RhÌ«ne;Provence-Alpes-CÌ«te d'Azur;AG MÌ©diterranÌ©e;REGION PROVENCE ALPES COTE D'AZUR;1;5.3770681;43.3518976;
183;Picon Busserine;1;c;87759290;;XPC;13014;Marseille;13-055;Bouches-du-RhÌ«ne;Provence-Alpes-CÌ«te d'Azur;AG MÌ©diterranÌ©e;REGION PROVENCE ALPES COTE D'AZUR;1;5.3927456;43.3309989;
184;Le Bosquet;1;c;87757757;;BQJ;6400;Cannes;06-029;Alpes-Maritimes;Provence-Alpes-CÌ«te d'Azur;AG MÌ©diterranÌ©e;REGION PROVENCE ALPES COTE D'AZUR;1;6.9816599;43.5515285;
185;La FrayÌ¬re;1;c;87757740;;FYS;6400;Cannes;06-029;Alpes-Maritimes;Provence-Alpes-CÌ«te d'Azur;AG MÌ©diterranÌ©e;REGION PROVENCE ALPES COTE D'AZUR;1;6.9720902;43.5581088;
186;Ranguin;1;c;87757732;;RGN;6400;Cannes;06-029;Alpes-Maritimes;Provence-Alpes-CÌ«te d'Azur;AG MÌ©diterranÌ©e;REGION PROVENCE ALPES COTE D'AZUR;1;6.9693134;43.5691636;
187;Grasse;1;b;87757724;;GRA;6520;Grasse;06-069;Alpes-Maritimes;Provence-Alpes-CÌ«te d'Azur;AG MÌ©diterranÌ©e;REGION PROVENCE ALPES COTE D'AZUR;1;6.925524;43.653317;
188;Biot;1;b;87757690;;BJO;6410;Biot;06-018;Alpes-Maritimes;Provence-Alpes-CÌ«te d'Azur;AG MÌ©diterranÌ©e;REGION PROVENCE ALPES COTE D'AZUR;1;7.126090;43.610951;
189;Antibes;1;a;87757674;;ATB;6600;Antibes;06-004;Alpes-Maritimes;Provence-Alpes-CÌ«te d'Azur;AG MÌ©diterranÌ©e;REGION PROVENCE ALPES COTE D'AZUR;2; 7.119498;43.585784;
190;Juan les Pins;1;b;87757666;;JAE;6160;Antibes;06-004;Alpes-Maritimes;Provence-Alpes-CÌ«te d'Azur;AG MÌ©diterranÌ©e;REGION PROVENCE ALPES COTE D'AZUR;1;7.111440;43.570896;
191;Golfe Juan Vallauris;1;b;87757641;;GLF;6220;Vallauris;06-155;Alpes-Maritimes;Provence-Alpes-CÌ«te d'Azur;AG MÌ©diterranÌ©e;REGION PROVENCE ALPES COTE D'AZUR;1;7.073578;43.566501;
192;Cannes;1;a;87757625;;CAN;6400;Cannes;06-029;Alpes-Maritimes;Provence-Alpes-CÌ«te d'Azur;AG MÌ©diterranÌ©e;REGION PROVENCE ALPES COTE D'AZUR;2; 7.019682;43.553839;
193;Cannes La Bocca;1;b;87757617;;CAB;6150;Cannes;06-029;Alpes-Maritimes;Provence-Alpes-CÌ«te d'Azur;AG MÌ©diterranÌ©e;REGION PROVENCE ALPES COTE D'AZUR;1;6.986601;43.548787;
194;Mandelieu-la-Napoule;1;b;87757591;;MPV;6210;Mandelieu-la-Napoule;06-079;Alpes-Maritimes;Provence-Alpes-CÌ«te d'Azur;AG MÌ©diterranÌ©e;REGION PROVENCE ALPES COTE D'AZUR;1;6.941313;43.523903;
195;ThÌ©oule-sur-Mer;1;c;87757583;;THM;6590;ThÌ©oule-sur-Mer;06-138;Alpes-Maritimes;Provence-Alpes-CÌ«te d'Azur;AG MÌ©diterranÌ©e;REGION PROVENCE ALPES COTE D'AZUR;1;6.9367978;43.5134929;
196;Le Trayas;1;c;87757575;;TYA;83700;Saint-RaphaÌÇl;83-118;Var;Provence-Alpes-CÌ«te d'Azur;AG MÌ©diterranÌ©e;REGION PROVENCE ALPES COTE D'AZUR;1;6.9243444;43.4746639;
197;AnthÌ©or Cap Roux;1;c;87757567;;AHC;83530;Saint-RaphaÌÇl;83-118;Var;Provence-Alpes-CÌ«te d'Azur;AG MÌ©diterranÌ©e;REGION PROVENCE ALPES COTE D'AZUR;1;6.8921036;43.4349641;
198;Agay;1;c;87757559;;AGH;83530;Saint-RaphaÌÇl;83-118;Var;Provence-Alpes-CÌ«te d'Azur;AG MÌ©diterranÌ©e;REGION PROVENCE ALPES COTE D'AZUR;1;6.8564997;43.4313701;
199;Le Dramont;1;c;87757542;;DRW;83530;Saint-RaphaÌÇl;83-118;Var;Provence-Alpes-CÌ«te d'Azur;AG MÌ©diterranÌ©e;REGION PROVENCE ALPES COTE D'AZUR;1;6.8442467;43.4178193;
200;Boulouris sur Mer;1;c;87757534;;BOU;83700;Saint-RaphaÌÇl;83-118;Var;Provence-Alpes-CÌ«te d'Azur;AG MÌ©diterranÌ©e;REGION PROVENCE ALPES COTE D'AZUR;1;6.8082519;43.4163471;
201;Saint-RaphaÌÇl Valescure;1;a;87757526;;SRV;83700;Saint-RaphaÌÇl;83-118;Var;Provence-Alpes-CÌ«te d'Azur;AG MÌ©diterranÌ©e;REGION PROVENCE ALPES COTE D'AZUR;2; 6.769083;43.423560;
202;FrÌ©jus - Saint-Raphael Autotrain;1;c;87757518;;;83700;FrÌ©jus;83-061;Var;Provence-Alpes-CÌ«te d'Azur;AG MÌ©diterranÌ©e;REGION PROVENCE ALPES COTE D'AZUR;1;6.7551022;43.4288632;
203;FrÌ©jus;1;b;87757500;;FRJ;83600;FrÌ©jus;83-061;Var;Provence-Alpes-CÌ«te d'Azur;AG MÌ©diterranÌ©e;REGION PROVENCE ALPES COTE D'AZUR;1;6.732941;43.432032;
204;Vievola;1;c;87756890;;VVA;6430;Tende;06-163;Alpes-Maritimes;Provence-Alpes-CÌ«te d'Azur;AG MÌ©diterranÌ©e;REGION PROVENCE ALPES COTE D'AZUR;1;7.5627976;44.1125561;
205;Tende;1;c;87756882;;TND;6430;Tende;06-163;Alpes-Maritimes;Provence-Alpes-CÌ«te d'Azur;AG MÌ©diterranÌ©e;REGION PROVENCE ALPES COTE D'AZUR;1;7.5941608;44.089922;
206;La Brigue;1;c;87756874;;WBI;6430;Brigue;06-162;Alpes-Maritimes;Provence-Alpes-CÌ«te d'Azur;AG MÌ©diterranÌ©e;REGION PROVENCE ALPES COTE D'AZUR;1;7.6056235;44.0625669;
207;Saint-Dalmas de Tende;1;c;87756866;;SDD;6430;Tende;06-163;Alpes-Maritimes;Provence-Alpes-CÌ«te d'Azur;AG MÌ©diterranÌ©e;REGION PROVENCE ALPES COTE D'AZUR;1;7.5834505;44.05582;
208;Fontan - Saorge;1;c;87756858;;FTO;6540;Fontan;06-062;Alpes-Maritimes;Provence-Alpes-CÌ«te d'Azur;AG MÌ©diterranÌ©e;REGION PROVENCE ALPES COTE D'AZUR;1;7.5516262;43.9966378;
209;Breil-sur-Roya;1;c;87756833;;BRE;6540;Breil-sur-Roya;06-023;Alpes-Maritimes;Provence-Alpes-CÌ«te d'Azur;AG MÌ©diterranÌ©e;REGION PROVENCE ALPES COTE D'AZUR;1;7.5163276;43.944039;
210;Sospel;1;c;87756825;;SOP;6380;Sospel;06-136;Alpes-Maritimes;Provence-Alpes-CÌ«te d'Azur;AG MÌ©diterranÌ©e;REGION PROVENCE ALPES COTE D'AZUR;1;7.453788;43.876545;
211;TouÌÇt-de-l'EscarÌ¬ne;1;c;87756817;;TDO;6440;TouÌÇt-de-l'EscarÌ¬ne;06-142;Alpes-Maritimes;Provence-Alpes-CÌ«te d'Azur;AG MÌ©diterranÌ©e;REGION PROVENCE ALPES COTE D'AZUR;1;7.364363;43.8470835;
212;L'EscarÌ¬ne;1;c;87756809;;ESR;6440;EscarÌ¬ne;06-057;Alpes-Maritimes;Provence-Alpes-CÌ«te d'Azur;AG MÌ©diterranÌ©e;REGION PROVENCE ALPES COTE D'AZUR;1;7.3517085;43.8397674;
213;Peille;1;c;87756791;;PEI;6440;Peille;06-091;Alpes-Maritimes;Provence-Alpes-CÌ«te d'Azur;AG MÌ©diterranÌ©e;REGION PROVENCE ALPES COTE D'AZUR;1;7.3800257;43.7920239;
214;Peillon - Sainte-ThÌ¬cle;1;c;87756783;;PXT;6440;Peillon;06-092;Alpes-Maritimes;Provence-Alpes-CÌ«te d'Azur;AG MÌ©diterranÌ©e;REGION PROVENCE ALPES COTE D'AZUR;1;7.366807;43.767846;
215;Drap - Cantaron;1;c;87756775;;DRA;6340;TrinitÌ©;06-149;Alpes-Maritimes;Provence-Alpes-CÌ«te d'Azur;AG MÌ©diterranÌ©e;REGION PROVENCE ALPES COTE D'AZUR;1;7.3168739;43.7599599;
216;La TrinitÌ© Victor;1;c;87756767;;TVR;6340;TrinitÌ©;06-149;Alpes-Maritimes;Provence-Alpes-CÌ«te d'Azur;AG MÌ©diterranÌ©e;REGION PROVENCE ALPES COTE D'AZUR;1;7.3114604;43.7427854;
217;Menton Garavan;1;b;87756494;;MNJ;6500;Menton;06-083;Alpes-Maritimes;Provence-Alpes-CÌ«te d'Azur;AG MÌ©diterranÌ©e;REGION PROVENCE ALPES COTE D'AZUR;1;7.517297;43.785202;
218;Menton;1;b;87756486;;MEN;6500;Menton;06-083;Alpes-Maritimes;Provence-Alpes-CÌ«te d'Azur;AG MÌ©diterranÌ©e;REGION PROVENCE ALPES COTE D'AZUR;2;7.493300;43.774444;
219;Carnoles;1;b;87756478;;KRL;6180;Roquebrune-Cap-Martin;06-104;Alpes-Maritimes;Provence-Alpes-CÌ«te d'Azur;AG MÌ©diterranÌ©e;REGION PROVENCE ALPES COTE D'AZUR;1;7.48139;43.76203;
220;Roquebrune-Cap-Martin;1;c;87756460;;CQR;6190;Roquebrune-Cap-Martin;06-104;Alpes-Maritimes;Provence-Alpes-CÌ«te d'Azur;AG MÌ©diterranÌ©e;REGION PROVENCE ALPES COTE D'AZUR;1;7.457343;43.7606178;
221;Cap-d'Ail;1;c;87756395;;KAI;6320;Cap-d'Ail;06-032;Alpes-Maritimes;Provence-Alpes-CÌ«te d'Azur;AG MÌ©diterranÌ©e;REGION PROVENCE ALPES COTE D'AZUR;1;7.3943362;43.7205382;
222;Ìöze;1;c;87756387;;EZZ;6360;Ìöze;06-059;Alpes-Maritimes;Provence-Alpes-CÌ«te d'Azur;AG MÌ©diterranÌ©e;REGION PROVENCE ALPES COTE D'AZUR;1;7.3568031;43.7221842;
223;Beaulieu-sur-Mer;1;b;87756379;;BUM;6310;Beaulieu-sur-Mer;06-011;Alpes-Maritimes;Provence-Alpes-CÌ«te d'Azur;AG MÌ©diterranÌ©e;REGION PROVENCE ALPES COTE D'AZUR;1;7.331545;43.706651;
224;Villefranche-sur-Mer;1;b;87756361;;VFH;6230;Villefranche-sur-Mer;06-159;Alpes-Maritimes;Provence-Alpes-CÌ«te d'Azur;AG MÌ©diterranÌ©e;REGION PROVENCE ALPES COTE D'AZUR;1;7.314129;43.707061;
225;Nice Riquier;1;b;87756353;;NIR;6300;Nice;06-088;Alpes-Maritimes;Provence-Alpes-CÌ«te d'Azur;AG MÌ©diterranÌ©e;REGION PROVENCE ALPES COTE D'AZUR;1;7.290175;43.705554;
226;Saint-Laurent-du-Var;1;b;87756346;;SNV;6700;Saint-Laurent-du-Var;06-123;Alpes-Maritimes;Provence-Alpes-CÌ«te d'Azur;AG MÌ©diterranÌ©e;REGION PROVENCE ALPES COTE D'AZUR;1;7.194413;43.662451;
227;Cros de Cagnes;1;b;87756338;;CKG;6800;Cagnes-sur-Mer;06-027;Alpes-Maritimes;Provence-Alpes-CÌ«te d'Azur;AG MÌ©diterranÌ©e;REGION PROVENCE ALPES COTE D'AZUR;1;7.167111;43.660465;
228;Cagnes-sur-Mer;1;b;87756320;;CGM;6800;Cagnes-sur-Mer;06-027;Alpes-Maritimes;Provence-Alpes-CÌ«te d'Azur;AG MÌ©diterranÌ©e;REGION PROVENCE ALPES COTE D'AZUR;1;7.14864;43.65813;
230;Villeneuve-Loubet;1;b;87756304;;VVP;6270;Villeneuve-Loubet;06-161;Alpes-Maritimes;Provence-Alpes-CÌ«te d'Azur;AG MÌ©diterranÌ©e;REGION PROVENCE ALPES COTE D'AZUR;1;7.134066;43.629928;
231;Nice Saint-Augustin;1;b;87756254;;NIA;6200;Nice;06-088;Alpes-Maritimes;Provence-Alpes-CÌ«te d'Azur;AG MÌ©diterranÌ©e;REGION PROVENCE ALPES COTE D'AZUR;1;7.216199;43.670728;
232;Nice;1;a;87756056;;NIC;6008;Nice;06-088;Alpes-Maritimes;Provence-Alpes-CÌ«te d'Azur;AG MÌ©diterranÌ©e;REGION PROVENCE ALPES COTE D'AZUR;3; 7.261904;43.704556;
233;Nice Saint Roch;1;c;87756007;;NSR;6300;Nice;06-088;Alpes-Maritimes;Provence-Alpes-CÌ«te d'Azur;AG MÌ©diterranÌ©e;REGION PROVENCE ALPES COTE D'AZUR;1;7.286869;43.715342;
234;HyÌ¬res;1;b;87755629;;HYE;83400;HyÌ¬res;83-069;Var;Provence-Alpes-CÌ«te d'Azur;AG MÌ©diterranÌ©e;REGION PROVENCE ALPES COTE D'AZUR;2;6.124223;43.108867;
235;La Crau;1;c;87755611;;LUV;83260;Crau;83-047;Var;Provence-Alpes-CÌ«te d'Azur;AG MÌ©diterranÌ©e;REGION PROVENCE ALPES COTE D'AZUR;1;6.0687663;43.1449352;
236;Les Arcs - Draguignan;1;a;87755447;;LAC;83460;Arcs;83-004;Var;Provence-Alpes-CÌ«te d'Azur;AG MÌ©diterranÌ©e;REGION PROVENCE ALPES COTE D'AZUR;2;6.482498;43.455524;
237;Vidauban;1;c;87755421;;VUB;83550;Vidauban;83-148;Var;Provence-Alpes-CÌ«te d'Azur;AG MÌ©diterranÌ©e;REGION PROVENCE ALPES COTE D'AZUR;1;6.4338501;43.4309416;
238;Le Luc - Le Cannet;1;c;87755405;;LEC;83340;Cannet-des-Maures;83-031;Var;Provence-Alpes-CÌ«te d'Azur;AG MÌ©diterranÌ©e;REGION PROVENCE ALPES COTE D'AZUR;1;6.3430972;43.3902379;
239;Gonfaron;1;c;87755397;;GFR;83590;Gonfaron;83-067;Var;Provence-Alpes-CÌ«te d'Azur;AG MÌ©diterranÌ©e;REGION PROVENCE ALPES COTE D'AZUR;1;6.2817644;43.3171516;
240;Pignans;1;c;87755389;;PIG;83790;Pignans;83-092;Var;Provence-Alpes-CÌ«te d'Azur;AG MÌ©diterranÌ©e;REGION PROVENCE ALPES COTE D'AZUR;1;6.2248459;43.298475;
241;Carnoules;1;c;87755371;;CNS;83660;Carnoules;83-033;Var;Provence-Alpes-CÌ«te d'Azur;AG MÌ©diterranÌ©e;REGION PROVENCE ALPES COTE D'AZUR;1;6.1862531;43.2974104;
242;Puget-Ville;1;c;87755363;;PVI;83390;Puget-sur-Argens;83-099;Var;Provence-Alpes-CÌ«te d'Azur;AG MÌ©diterranÌ©e;REGION PROVENCE ALPES COTE D'AZUR;1;6.1384483;43.283085;
243;Cuers - Pierrefeu;1;c;87755355;;CFU;83390;Cuers;83-049;Var;Provence-Alpes-CÌ«te d'Azur;AG MÌ©diterranÌ©e;REGION PROVENCE ALPES COTE D'AZUR;1;6.0856855;43.2364281;
244;SolliÌ¬s-Pont;1;c;87755330;;SIP;83210;SolliÌ¬s-Pont;83-130;Var;Provence-Alpes-CÌ«te d'Azur;AG MÌ©diterranÌ©e;REGION PROVENCE ALPES COTE D'AZUR;1;6.0464158;43.1907805;
245;La Pauline HyÌ¬res;1;c;87755314;;LPH;83400;Garde;83-062;Var;Provence-Alpes-CÌ«te d'Azur;AG MÌ©diterranÌ©e;REGION PROVENCE ALPES COTE D'AZUR;1;6.0351027;43.1364769;
246;La Garde;1;c;87755306;;LGD;83130;Garde;83-062;Var;Provence-Alpes-CÌ«te d'Azur;AG MÌ©diterranÌ©e;REGION PROVENCE ALPES COTE D'AZUR;1;6.0100767;43.1187044;
247;La Seyne - Six Fours;1;b;87755264;;LSM;83500;Seyne-sur-Mer;83-126;Var;Provence-Alpes-CÌ«te d'Azur;AG MÌ©diterranÌ©e;REGION PROVENCE ALPES COTE D'AZUR;1;5.876966;43.116959;
248;Ollioules - Sanary-sur-Mer;1;b;87755231;;OLL;83190;Ollioules;83-090;Var;Provence-Alpes-CÌ«te d'Azur;AG MÌ©diterranÌ©e;REGION PROVENCE ALPES COTE D'AZUR;1;5.824979;43.122586;
249;Bandol;1;b;87755223;;BND;83150;Bandol;83-009;Var;Provence-Alpes-CÌ«te d'Azur;AG MÌ©diterranÌ©e;REGION PROVENCE ALPES COTE D'AZUR;1;5.750118;43.140344;
250;Saint-Cyr Les Lecques - La CadiÌ¬re;1;b;87755215;;SAQ;83270;Saint-Cyr-sur-Mer;83-112;Var;Provence-Alpes-CÌ«te d'Azur;AG MÌ©diterranÌ©e;REGION PROVENCE ALPES COTE D'AZUR;1;5.703858;43.185509;
251;Toulon;1;a;87755009;;TLN;83000;Toulon;83-137;Var;Provence-Alpes-CÌ«te d'Azur;AG MÌ©diterranÌ©e;REGION PROVENCE ALPES COTE D'AZUR;2; 5.929293;43.128370;
252;Salon;1;b;87753764;;SON;13300;Salon-de-Provence;13-103;Bouches-du-RhÌ«ne;Provence-Alpes-CÌ«te d'Azur;AG MÌ©diterranÌ©e;REGION PROVENCE ALPES COTE D'AZUR;1;5.088569;43.639061;
253;Lamanon;1;c;87753731;;LMN;13113;Lamanon;13-049;Bouches-du-RhÌ«ne;Provence-Alpes-CÌ«te d'Azur;AG MÌ©diterranÌ©e;REGION PROVENCE ALPES COTE D'AZUR;1;5.0913333;43.6999662;
254;SÌ©nas;1;c;87753715;;SUT;13560;SÌ©nas;13-105;Bouches-du-RhÌ«ne;Provence-Alpes-CÌ«te d'Azur;AG MÌ©diterranÌ©e;REGION PROVENCE ALPES COTE D'AZUR;1;5.0733645;43.7409571;
255;Orgon;1;c;87753707;;ORG;13660;Orgon;13-067;Bouches-du-RhÌ«ne;Provence-Alpes-CÌ«te d'Azur;AG MÌ©diterranÌ©e;REGION PROVENCE ALPES COTE D'AZUR;1;5.0456738;43.7859131;
256;Saint-Martin-de-Crau;1;c;87753681;;SMD;13310;Saint-Martin-de-Crau;13-097;Bouches-du-RhÌ«ne;Provence-Alpes-CÌ«te d'Azur;AG MÌ©diterranÌ©e;REGION PROVENCE ALPES COTE D'AZUR;1;4.8003403;43.6223344;
257;Arles;1;b;87753657;;ARS;13200;Arles;13-004;Bouches-du-RhÌ«ne;Provence-Alpes-CÌ«te d'Azur;AG MÌ©diterranÌ©e;REGION PROVENCE ALPES COTE D'AZUR;2;4.632030;43.684853;
258;Niolon;1;c;87753582;;NLO;13016;Marseille;13-055;Bouches-du-RhÌ«ne;Provence-Alpes-CÌ«te d'Azur;AG MÌ©diterranÌ©e;REGION PROVENCE ALPES COTE D'AZUR;1;5.2569415;43.340223;
259;La Redonne EnsuÌ¬s;1;c;87753574;;RDS;13820;EnsuÌ¬s-la-Redonne;13-033;Bouches-du-RhÌ«ne;Provence-Alpes-CÌ«te d'Azur;AG MÌ©diterranÌ©e;REGION PROVENCE ALPES COTE D'AZUR;1;5.1975675;43.33447;
260;Carry-le-Rouet;1;b;87753566;;CRR;13620;Carry-le-Rouet;13-021;Bouches-du-RhÌ«ne;Provence-Alpes-CÌ«te d'Azur;AG MÌ©diterranÌ©e;REGION PROVENCE ALPES COTE D'AZUR;1;5.153594;43.336592;
261;Sausset-les-Pins;1;b;87753558;;SPJ;13960;Sausset-les-Pins;13-104;Bouches-du-RhÌ«ne;Provence-Alpes-CÌ«te d'Azur;AG MÌ©diterranÌ©e;REGION PROVENCE ALPES COTE D'AZUR;1;5.110001;43.332864;
262;La Couronne Carro;1;c;87753541;;CRQ;13500;Martigues;13-056;Bouches-du-RhÌ«ne;Provence-Alpes-CÌ«te d'Azur;AG MÌ©diterranÌ©e;REGION PROVENCE ALPES COTE D'AZUR;1;5.0517077;43.3398078;
263;Martigues;1;c;87753509;;MTG;13500;Martigues;13-056;Bouches-du-RhÌ«ne;Provence-Alpes-CÌ«te d'Azur;AG MÌ©diterranÌ©e;REGION PROVENCE ALPES COTE D'AZUR;1;5.0257804;43.3929209;
264;Croix Sainte;1;c;87753491;;XST;13500;Martigues;13-056;Bouches-du-RhÌ«ne;Provence-Alpes-CÌ«te d'Azur;AG MÌ©diterranÌ©e;REGION PROVENCE ALPES COTE D'AZUR;1;5.0196445;43.4088317;
265;Port-de-Bouc;1;c;87753459;;PDB;13110;Port-de-Bouc;13-077;Bouches-du-RhÌ«ne;Provence-Alpes-CÌ«te d'Azur;AG MÌ©diterranÌ©e;REGION PROVENCE ALPES COTE D'AZUR;1;4.9846006;43.4071317;
266;Fos-sur-Mer;1;c;87753442;;FOS;13270;Fos-sur-Mer;13-039;Bouches-du-RhÌ«ne;Provence-Alpes-CÌ«te d'Azur;AG MÌ©diterranÌ©e;REGION PROVENCE ALPES COTE D'AZUR;1;4.974579;43.428029;
267;Rassuen;1;c;87753426;;RAU;13270;Istres;13-047;Bouches-du-RhÌ«ne;Provence-Alpes-CÌ«te d'Azur;AG MÌ©diterranÌ©e;REGION PROVENCE ALPES COTE D'AZUR;1;4.9731266;43.4966716;
268;Istres;1;c;87753418;;ISR;13800;Istres;13-047;Bouches-du-RhÌ«ne;Provence-Alpes-CÌ«te d'Azur;AG MÌ©diterranÌ©e;REGION PROVENCE ALPES COTE D'AZUR;1;4.9804272;43.5153953;
269;Pas des Lanciers;1;b;87753285;;PDL;13730;Saint-Victoret;13-102;Bouches-du-RhÌ«ne;Provence-Alpes-CÌ«te d'Azur;AG MÌ©diterranÌ©e;REGION PROVENCE ALPES COTE D'AZUR;1;5.253822;43.409655;
271;Rognac;1;b;87753251;;RGC;13340;Rognac;13-081;Bouches-du-RhÌ«ne;Provence-Alpes-CÌ«te d'Azur;AG MÌ©diterranÌ©e;REGION PROVENCE ALPES COTE D'AZUR;1;5.230666;43.486600;
272;Berre;1;c;87753228;;BRR;13130;Berre-l'Ìätang;13-014;Bouches-du-RhÌ«ne;Provence-Alpes-CÌ«te d'Azur;AG MÌ©diterranÌ©e;REGION PROVENCE ALPES COTE D'AZUR;1;5.1789508;43.5008861;
273;Saint-Chamas;1;c;87753202;;SHY;13250;Saint-Chamas;13-092;Bouches-du-RhÌ«ne;Provence-Alpes-CÌ«te d'Azur;AG MÌ©diterranÌ©e;REGION PROVENCE ALPES COTE D'AZUR;1;5.0402963;43.5511577;
274;Miramas;1;b;87753004;;MAS;13140;Miramas;13-063;Bouches-du-RhÌ«ne;Provence-Alpes-CÌ«te d'Azur;AG MÌ©diterranÌ©e;REGION PROVENCE ALPES COTE D'AZUR;2;5.000264;43.580704;
276;Sainte-Marthe en Provence;1;c;87751842;;SAH;13014;Marseille;13-055;Bouches-du-RhÌ«ne;Provence-Alpes-CÌ«te d'Azur;AG MÌ©diterranÌ©e;REGION PROVENCE ALPES COTE D'AZUR;1;5.390412;43.3392414;
277;Saint-Antoine;1;c;87751826;;SNT;13015;Marseille;13-055;Bouches-du-RhÌ«ne;Provence-Alpes-CÌ«te d'Azur;AG MÌ©diterranÌ©e;REGION PROVENCE ALPES COTE D'AZUR;1;5.3578102;43.3695993;
278;SeptÌ¬mes;1;c;87751800;;SEP;13240;SeptÌ¬mes-les-Vallons;13-106;Bouches-du-RhÌ«ne;Provence-Alpes-CÌ«te d'Azur;AG MÌ©diterranÌ©e;REGION PROVENCE ALPES COTE D'AZUR;1;5.3701756;43.4031137;
279;La Ciotat;1;b;87751784;;LTV;13600;Ciotat;13-028;Bouches-du-RhÌ«ne;Provence-Alpes-CÌ«te d'Azur;AG MÌ©diterranÌ©e;REGION PROVENCE ALPES COTE D'AZUR;1;5.632647;43.199593;
280;Cassis;1;b;87751776;;CSI;13260;Cassis;13-022;Bouches-du-RhÌ«ne;Provence-Alpes-CÌ«te d'Azur;AG MÌ©diterranÌ©e;REGION PROVENCE ALPES COTE D'AZUR;1;5.553055;43.234060;
281;Aubagne;1;b;87751750;;;13400;Aubagne;13-005;Bouches-du-RhÌ«ne;Provence-Alpes-CÌ«te d'Azur;AG MÌ©diterranÌ©e;REGION PROVENCE ALPES COTE D'AZUR;1;5.566580;43.296045;
282;La Penne-sur-Huveaune;1;c;87751743;;PHE;13821;Penne-sur-Huveaune;13-070;Bouches-du-RhÌ«ne;Provence-Alpes-CÌ«te d'Azur;AG MÌ©diterranÌ©e;REGION PROVENCE ALPES COTE D'AZUR;1;5.5155698;43.2846765;
283;La Pomme;1;c;87751719;;PPO;13720;Marseille;13-055;Bouches-du-RhÌ«ne;Provence-Alpes-CÌ«te d'Azur;AG MÌ©diterranÌ©e;REGION PROVENCE ALPES COTE D'AZUR;1;5.4413152;43.2905165;
284;Saint-Marcel;1;c;87751701;;SMA;13720;Marseille;13-055;Bouches-du-RhÌ«ne;Provence-Alpes-CÌ«te d'Azur;AG MÌ©diterranÌ©e;REGION PROVENCE ALPES COTE D'AZUR;1;5.4671155;43.28818;
285;Saint-Louis les Aygalades;1;c;87751644;;SLA;13000;Marseille;13-055;Bouches-du-RhÌ«ne;Provence-Alpes-CÌ«te d'Azur;AG MÌ©diterranÌ©e;REGION PROVENCE ALPES COTE D'AZUR;1;5.3651173;43.3461208;
286;SÌ©on Saint-Henri;1;c;87751636;;ZSH;13016;Marseille;13-055;Bouches-du-RhÌ«ne;Provence-Alpes-CÌ«te d'Azur;AG MÌ©diterranÌ©e;REGION PROVENCE ALPES COTE D'AZUR;1;5.3399592;43.3624191;
287;L'Estaque;1;c;87751602;;LES;13016;Marseille;13-055;Bouches-du-RhÌ«ne;Provence-Alpes-CÌ«te d'Azur;AG MÌ©diterranÌ©e;REGION PROVENCE ALPES COTE D'AZUR;1;5.3213598;43.363628;
288;L'Ariane La TrinitÌ©;1;c;87751529;;ATJ;6340;TrinitÌ©;06-149;Alpes-Maritimes;Provence-Alpes-CÌ«te d'Azur;AG MÌ©diterranÌ©e;REGION PROVENCE ALPES COTE D'AZUR;1;7.3025298;43.7343716;
289;Simiane;1;b;87751438;;SIE;13109;Simiane-Collongue;13-107;Bouches-du-RhÌ«ne;Provence-Alpes-CÌ«te d'Azur;AG MÌ©diterranÌ©e;REGION PROVENCE ALPES COTE D'AZUR;1;5.426148;43.434747;
290;Gardanne;1;b;87751420;;GDN;13120;Gardanne;13-041;Bouches-du-RhÌ«ne;Provence-Alpes-CÌ«te d'Azur;AG MÌ©diterranÌ©e;REGION PROVENCE ALPES COTE D'AZUR;1;5.463332;43.455992;
291;Aix-en-Provence;1;b;87751404;;AXP;13100;Aix-en-Provence;13-001;Bouches-du-RhÌ«ne;Provence-Alpes-CÌ«te d'Azur;AG MÌ©diterranÌ©e;REGION PROVENCE ALPES COTE D'AZUR;1;5.445345;43.522912;
292;Meyrargues;1;c;87751370;;MEY;13650;Meyrargues;13-059;Bouches-du-RhÌ«ne;Provence-Alpes-CÌ«te d'Azur;AG MÌ©diterranÌ©e;REGION PROVENCE ALPES COTE D'AZUR;1;5.5395738;43.6440076;
293;Pertuis;1;c;87751362;;PER;84120;Pertuis;84-089;Vaucluse;Provence-Alpes-CÌ«te d'Azur;AG MÌ©diterranÌ©e;REGION PROVENCE ALPES COTE D'AZUR;1;5.5037023;43.6845547;
294;Manosque - GrÌ©oux-les-Bains;1;c;87751321;;MNQ;4100;Manosque;04-112;Alpes-de-Haute-Provence;Provence-Alpes-CÌ«te d'Azur;AG MÌ©diterranÌ©e;REGION PROVENCE ALPES COTE D'AZUR;1;5.7933241;43.8231945;
295;La Brillanne - Oraison;1;c;87751271;;LBO;4700;Brillanne;04-034;Alpes-de-Haute-Provence;Provence-Alpes-CÌ«te d'Azur;AG MÌ©diterranÌ©e;REGION PROVENCE ALPES COTE D'AZUR;1;5.8923199;43.9247771;
297;ChÌ¢teau-Arnoux-Saint-Auban;1;c;87751230;;SAU;4160;ChÌ¢teau-Arnoux-Saint-Auban;04-049;Alpes-de-Haute-Provence;Provence-Alpes-CÌ«te d'Azur;AG MÌ©diterranÌ©e;REGION PROVENCE ALPES COTE D'AZUR;1;5.9973734;44.0615651;
298;Sisteron;1;c;87751206;;SIO;4200;Sisteron;04-209;Alpes-de-Haute-Provence;Provence-Alpes-CÌ«te d'Azur;AG MÌ©diterranÌ©e;REGION PROVENCE ALPES COTE D'AZUR;1;5.9465888;44.1902025;
299;Marseille Blancarde;1;b;87751081;;MBC;13004;Marseille;13-055;Bouches-du-RhÌ«ne;Provence-Alpes-CÌ«te d'Azur;AG MÌ©diterranÌ©e;REGION PROVENCE ALPES COTE D'AZUR;1;5.406559;43.29614391;
300;Marseille Saint-Charles;1;a;87751008;;MSC;13232;Marseille;13-055;Bouches-du-RhÌ«ne;Provence-Alpes-CÌ«te d'Azur;AG MÌ©diterranÌ©e;REGION PROVENCE ALPES COTE D'AZUR;3;5.380407;43.302666;
301;Moirans la Galifette;1;b;87747691;;MFE;38430;Moirans;38-239;IsÌ¬re;RhÌ«ne-Alpes;AG Centre Est RhÌ«ne Alpin;REGION ALPES;1;5.565170;45.324154;
302;Lus-la-Croix-Haute;1;c;87747667;;LCX;26620;Lus-la-Croix-Haute;26-168;DrÌ«me;RhÌ«ne-Alpes;AG Centre Est RhÌ«ne Alpin;REGION ALPES;1;5.6973678;44.6709898;
303;Clelles - Mens;1;c;87747626;;CMS;38930;Clelles;38-113;IsÌ¬re;RhÌ«ne-Alpes;AG Centre Est RhÌ«ne Alpin;REGION ALPES;1;5.6050622;44.8272443;
304;Monestier-de-Clermont;1;c;87747592;;MDC;38650;Monestier-de-Clermont;38-242;IsÌ¬re;RhÌ«ne-Alpes;AG Centre Est RhÌ«ne Alpin;REGION ALPES;1;5.6339702;44.911996;
305;Vif;1;c;87747576;;VIF;38450;Vif;38-545;IsÌ¬re;RhÌ«ne-Alpes;AG Centre Est RhÌ«ne Alpin;REGION ALPES;1;5.6854542;45.0476532;
306;Saint-Georges-de-Commiers;1;c;87747568;;SGC;38450;Saint-Georges-de-Commiers;38-388;IsÌ¬re;RhÌ«ne-Alpes;AG Centre Est RhÌ«ne Alpin;REGION ALPES;1;5.7017874;45.0437667;
307;Jarrie - Vizille;1;c;87747535;;JAV;38560;Jarrie;38-200;IsÌ¬re;RhÌ«ne-Alpes;AG Centre Est RhÌ«ne Alpin;REGION ALPES;1;5.7424487;45.0854543;
308;Pont-de-Claix;1;c;87747519;;PDC;38800;Pont-de-Claix;38-317;IsÌ¬re;RhÌ«ne-Alpes;AG Centre Est RhÌ«ne Alpin;REGION ALPES;1;5.6998669;45.1251549;
309;Pontcharra sur BrÌ©da;1;b;87747493;;PCA;38530;Pontcharra;38-314;IsÌ¬re;RhÌ«ne-Alpes;AG Centre Est RhÌ«ne Alpin;REGION ALPES;1;6.007917;45.434151;
310;Goncelin;1;b;87747477;;GOC;38570;Goncelin;38-181;IsÌ¬re;RhÌ«ne-Alpes;AG Centre Est RhÌ«ne Alpin;REGION ALPES;1;5.974136;45.341941;
311;Brignoud;1;b;87747451;;BNU;38190;Villard-Bonnot;38-547;IsÌ¬re;RhÌ«ne-Alpes;AG Centre Est RhÌ«ne Alpin;REGION ALPES;1;5.901472;45.262450;
313;Grenoble UniversitÌ©s - GiÌ¬res;1;b;87747402;;GRS;38610;GiÌ¬res;38-179;IsÌ¬re;RhÌ«ne-Alpes;AG Centre Est RhÌ«ne Alpin;REGION ALPES;1;5.784740;45.184877;
314;Saint-ÌägrÌ¬ve Saint-Robert;1;c;87747352;;SEG;38120;Saint-ÌägrÌ¬ve;38-382;IsÌ¬re;RhÌ«ne-Alpes;AG Centre Est RhÌ«ne Alpin;REGION ALPES;1;5.6712687;45.2357234;
315;Voreppe;1;b;87747337;;VPE;38340;Voreppe;38-565;IsÌ¬re;RhÌ«ne-Alpes;AG Centre Est RhÌ«ne Alpin;REGION ALPES;1;5.632119;45.290417;
316;Moirans;1;b;87747329;;MOA;38430;Moirans;38-239;IsÌ¬re;RhÌ«ne-Alpes;AG Centre Est RhÌ«ne Alpin;REGION ALPES;1;5.581915;45.322185;
317;Voiron;1;b;87747287;;VOR;38500;Voiron;38-563;IsÌ¬re;RhÌ«ne-Alpes;AG Centre Est RhÌ«ne Alpin;REGION ALPES;1;5.595054;45.364037;
318;RÌ©aumont - Saint-Cassien;1;c;87747279;;RCS;38140;Saint-Cassien;38-373;IsÌ¬re;RhÌ«ne-Alpes;AG Centre Est RhÌ«ne Alpin;REGION ALPES;1;5.5346895;45.3688217;
319;Rives;1;b;87747246;;RIV;38140;Rives;38-337;IsÌ¬re;RhÌ«ne-Alpes;AG Centre Est RhÌ«ne Alpin;REGION ALPES;1;5.491893;45.357535;
321;Le Grand-Lemps;1;c;87747220;;LGL;38690;Grand-Lemps;38-182;IsÌ¬re;RhÌ«ne-Alpes;AG Centre Est RhÌ«ne Alpin;REGION ALPES;1;5.4231117;45.3966261;
322;ChÌ¢bons;1;c;87747212;;CKN;38690;ChÌ¢bons;38-065;IsÌ¬re;RhÌ«ne-Alpes;AG Centre Est RhÌ«ne Alpin;REGION ALPES;1;5.4281009;45.4383566;
323;Virieu sur Bourbre;1;c;87747204;;VRB;38730;Panissage;38-293;IsÌ¬re;RhÌ«ne-Alpes;AG Centre Est RhÌ«ne Alpin;REGION ALPES;1;5.4721424;45.491703;
324;Grenoble;1;a;87747006;;GRE;38000;Grenoble;38-185;IsÌ¬re;RhÌ«ne-Alpes;AG Centre Est RhÌ«ne Alpin;REGION ALPES;3; 5.714584;45.191493;
325;Le Buet;1;c;87746883;;BVQ;74660;Vallorcine;74-290;Haute-Savoie;RhÌ«ne-Alpes;AG Centre Est RhÌ«ne Alpin;REGION ALPES;1;6.9204119;46.018805;
326;Vallorcine;1;c;87746875;;VLO;74660;Vallorcine;74-290;Haute-Savoie;RhÌ«ne-Alpes;AG Centre Est RhÌ«ne Alpin;REGION ALPES;1;6.9326694;46.0324983;
327;Montroc le Planet;1;c;87746867;;MKZ;74660;Chamonix-Mont-Blanc;74-056;Haute-Savoie;RhÌ«ne-Alpes;AG Centre Est RhÌ«ne Alpin;REGION ALPES;1;6.9345425;45.996415;
328;ArgentiÌ¬re;1;c;87746859;;AGI;74400;Chamonix-Mont-Blanc;74-056;Haute-Savoie;RhÌ«ne-Alpes;AG Centre Est RhÌ«ne Alpin;REGION ALPES;1;6.9264844;45.9819438;
329;La Joux;1;c;87746842;;JOO;74400;Chamonix-Mont-Blanc;74-056;Haute-Savoie;RhÌ«ne-Alpes;AG Centre Est RhÌ«ne Alpin;REGION ALPES;1;6.910179;45.9657075;
330;Les Tines;1;c;87746834;;TNJ;74400;Chamonix-Mont-Blanc;74-056;Haute-Savoie;RhÌ«ne-Alpes;AG Centre Est RhÌ«ne Alpin;REGION ALPES;1;6.8991603;45.9505693;
331;Les Praz de Chamonix;1;c;87746826;;PZI;74400;Chamonix-Mont-Blanc;74-056;Haute-Savoie;RhÌ«ne-Alpes;AG Centre Est RhÌ«ne Alpin;REGION ALPES;1;6.888753;45.9394594;
332;Les Moussoux;1;c;87746818;;MQK;74400;Chamonix-Mont-Blanc;74-056;Haute-Savoie;RhÌ«ne-Alpes;AG Centre Est RhÌ«ne Alpin;REGION ALPES;1;6.8589899;45.9166347;
333;Chamonix-Mont-Blanc;1;b;87746784;;CHX;74400;Chamonix-Mont-Blanc;74-056;Haute-Savoie;RhÌ«ne-Alpes;AG Centre Est RhÌ«ne Alpin;REGION ALPES;1;6.87363;45.92277;
334;Les PÌ©lerins;1;c;87746776;;PKN;74400;Chamonix-Mont-Blanc;74-056;Haute-Savoie;RhÌ«ne-Alpes;AG Centre Est RhÌ«ne Alpin;REGION ALPES;1;6.8472858;45.9125671;
335;Les Bossons;1;c;87746768;;BHS;74400;Chamonix-Mont-Blanc;74-056;Haute-Savoie;RhÌ«ne-Alpes;AG Centre Est RhÌ«ne Alpin;REGION ALPES;1;6.8391969;45.9067455;
336;Taconnaz;1;c;87746750;;TAC;74310;Houches;74-143;Haute-Savoie;RhÌ«ne-Alpes;AG Centre Est RhÌ«ne Alpin;REGION ALPES;1;6.8258755;45.8992065;
337;Les Houches;1;c;87746743;;HOU;74310;Houches;74-143;Haute-Savoie;RhÌ«ne-Alpes;AG Centre Est RhÌ«ne Alpin;REGION ALPES;1;6.796924;45.8935639;
338;Viaduc sainte-Marie;1;c;87746735;;VDU;74310;Houches;74-143;Haute-Savoie;RhÌ«ne-Alpes;AG Centre Est RhÌ«ne Alpin;REGION ALPES;1;6.7850134;45.897096;
339;Vaudagne;1;c;87746727;;;74310;Houches;74-143;Haute-Savoie;RhÌ«ne-Alpes;AG Centre Est RhÌ«ne Alpin;REGION ALPES;1;6.7726673;45.9088517;
340;Servoz;1;c;87746719;;SVZ;74310;Servoz;74-266;Haute-Savoie;RhÌ«ne-Alpes;AG Centre Est RhÌ«ne Alpin;REGION ALPES;1;6.763444;45.9244592;
341;Chedde;1;c;87746701;;CED;74190;Passy;74-208;Haute-Savoie;RhÌ«ne-Alpes;AG Centre Est RhÌ«ne Alpin;REGION ALPES;1;6.7197662;45.9263464;
342;Reignier;1;c;87746511;;REI;74930;Reignier-Ìäsery;74-220;Haute-Savoie;RhÌ«ne-Alpes;AG Centre Est RhÌ«ne Alpin;REGION ALPES;1;6.2675466;46.1256159;
343;Saint-Gervais-les-Bains Le Fayet;1;b;87746479;;SGB;74170;Saint-Gervais-les-Bains;74-236;Haute-Savoie;RhÌ«ne-Alpes;AG Centre Est RhÌ«ne Alpin;REGION ALPES;1;6.701331;45.906423;
344;Sallanches - Combloux - MegÌ¬ve;1;b;87746438;;SLS;74700;Sallanches;74-256;Haute-Savoie;RhÌ«ne-Alpes;AG Centre Est RhÌ«ne Alpin;REGION ALPES;1;6.636431;45.935702;
345;Magland;1;c;87746412;;MGD;74300;Magland;74-159;Haute-Savoie;RhÌ«ne-Alpes;AG Centre Est RhÌ«ne Alpin;REGION ALPES;1;6.6215075;46.016945;
346;Cluses;1;b;87746370;;CLU;74300;Cluses;74-081;Haute-Savoie;RhÌ«ne-Alpes;AG Centre Est RhÌ«ne Alpin;REGION ALPES;1;6.582663;46.061447;
347;Marignier;1;c;87746347;;MRG;74970;Marignier;74-164;Haute-Savoie;RhÌ«ne-Alpes;AG Centre Est RhÌ«ne Alpin;REGION ALPES;1;6.507826;46.0887815;
348;Bonneville;1;b;87746339;;BON;74130;Bonneville;74-042;Haute-Savoie;RhÌ«ne-Alpes;AG Centre Est RhÌ«ne Alpin;REGION ALPES;1;6.416524;46.077772;
349;Saint-Pierre-en-Faucigny;1;c;87746313;;SPE;74800;Saint-Pierre-en-Faucigny;74-250;Haute-Savoie;RhÌ«ne-Alpes;AG Centre Est RhÌ«ne Alpin;REGION ALPES;1;6.3757533;46.0593442;
350;La Roche-sur-Foron;1;b;87746305;;LRF;74800;Roche-sur-Foron;74-224;Haute-Savoie;RhÌ«ne-Alpes;AG Centre Est RhÌ«ne Alpin;REGION ALPES;1;6.303885;46.067560;
351;Groisy - Thorens - La Caille;1;c;87746248;;GTC;74570;Groisy;74-137;Haute-Savoie;RhÌ«ne-Alpes;AG Centre Est RhÌ«ne Alpin;REGION ALPES;1;6.17568;46.0111205;
353;Pringy;1;c;87746206;;PGY;74370;Pringy;74-217;Haute-Savoie;RhÌ«ne-Alpes;AG Centre Est RhÌ«ne Alpin;REGION ALPES;1;6.1232736;45.9395239;
354;Rumilly;1;b;87746149;;RUM;74150;Rumilly;74-225;Haute-Savoie;RhÌ«ne-Alpes;AG Centre Est RhÌ«ne Alpin;REGION ALPES;1;5.947938;45.862989;
355;Albens;1;c;87746115;;ABN;73410;Albens;73-010;Savoie;RhÌ«ne-Alpes;AG Centre Est RhÌ«ne Alpin;REGION ALPES;1;5.9483418;45.785946;
356;GrÌ©sy-sur-Aix;1;c;87746107;;GAX;73100;GrÌ©sy-sur-Aix;73-128;Savoie;RhÌ«ne-Alpes;AG Centre Est RhÌ«ne Alpin;REGION ALPES;1;5.9221751;45.7245161;
357;Annecy;1;a;87746008;;ANY;74000;Annecy;74-010;Haute-Savoie;RhÌ«ne-Alpes;AG Centre Est RhÌ«ne Alpin;REGION ALPES;2;6.121835;45.901965;
358;Seyssel - Corbonod;1;c;87745828;;SSS;1420;Corbonod;01-118;Ain;RhÌ«ne-Alpes;AG Centre Est RhÌ«ne Alpin;REGION ALPES;1;5.8315162;45.9630307;
359;Ìävian-les-Bains;1;b;87745679;;EVI;74500;Ìävian-les-Bains;74-119;Haute-Savoie;RhÌ«ne-Alpes;AG Centre Est RhÌ«ne Alpin;REGION ALPES;1;6.577457;46.397915;
360;Thonon-les-Bains;1;b;87745646;;THO;74200;Thonon-les-Bains;74-281;Haute-Savoie;RhÌ«ne-Alpes;AG Centre Est RhÌ«ne Alpin;REGION ALPES;1;6.481669;46.369004;
361;Perrignier;1;c;87745620;;PEG;74550;Perrignier;74-210;Haute-Savoie;RhÌ«ne-Alpes;AG Centre Est RhÌ«ne Alpin;REGION ALPES;1;6.4249208;46.303259;
362;Bons-en-Chablais;1;b;87745596;;BAB;74890;Bons-en-Chablais;74-043;Haute-Savoie;RhÌ«ne-Alpes;AG Centre Est RhÌ«ne Alpin;REGION ALPES;1;6.366246;46.270046;
363;Machilly;1;c;87745588;;MCI;74140;Machilly;74-158;Haute-Savoie;RhÌ«ne-Alpes;AG Centre Est RhÌ«ne Alpin;REGION ALPES;1;6.3282335;46.2512825;
364;Annemasse;1;b;87745497;;ANE;74100;Annemasse;74-012;Haute-Savoie;RhÌ«ne-Alpes;AG Centre Est RhÌ«ne Alpin;REGION ALPES;2;6.236520;46.199222;
365;Saint-Julien-en-Genevois;1;c;87745430;;SJG;74160;Saint-Julien-en-Genevois;74-243;Haute-Savoie;RhÌ«ne-Alpes;AG Centre Est RhÌ«ne Alpin;REGION ALPES;1;6.0855358;46.142044;
366;Valleiry;1;c;87745414;;VEY;74520;Valleiry;74-288;Haute-Savoie;RhÌ«ne-Alpes;AG Centre Est RhÌ«ne Alpin;REGION ALPES;1;5.96735;46.1092875;
367;Pougny - Chancy;1;c;87745380;;PJY;1550;Pougny;01-308;Ain;RhÌ«ne-Alpes;AG Centre Est RhÌ«ne Alpin;REGION ALPES;1;5.9613614;46.1446674;
368;Bellegarde;1;a;87745000;;BGD;1200;Bellegarde-sur-Valserine;01-033;Ain;RhÌ«ne-Alpes;AG Centre Est RhÌ«ne Alpin;REGION ALPES;2; 5.823483;46.109425;
369;Tenay - Hauteville;1;c;87743757;;TEN;1970;Argis;01-017;Ain;RhÌ«ne-Alpes;AG Centre Est RhÌ«ne Alpin;REGION ALPES;1;5.5016101;45.9222096;
370;Saint-Rambert-en-Bugey;1;c;87743740;;SBB;1230;Saint-Rambert-en-Bugey;01-384;Ain;RhÌ«ne-Alpes;AG Centre Est RhÌ«ne Alpin;REGION ALPES;1;5.438622;45.9473397;
371;AmbÌ©rieu-en-Bugey;1;b;87743716;;AMB;1500;AmbÌ©rieu-en-Bugey;01-004;Ain;RhÌ«ne-Alpes;AG Centre Est RhÌ«ne Alpin;REGION ALPES;1;5.342388;45.954008;
372;Saint-Claude;1;c;87743633;;SCL;39200;Saint-Claude;39-478;Jura;Franche-ComtÌ©;AG Centre Est RhÌ«ne Alpin;REGION BOURGOGNE FRANCHE-COMTE;1;5.8603471;46.3899539;
373;Molinges;1;c;87743591;;MGF;39360;Molinges;39-339;Jura;Franche-ComtÌ©;AG Centre Est RhÌ«ne Alpin;REGION BOURGOGNE FRANCHE-COMTE;1;5.7682135;46.3570706;
374;Oyonnax;1;b;87743534;;OYO;1100;Oyonnax;01-283;Ain;RhÌ«ne-Alpes;AG Centre Est RhÌ«ne Alpin;REGION ALPES;1;5.653338;46.259742;
375;Bellignat;1;c;87743526;;BNI;1810;Bellignat;01-031;Ain;RhÌ«ne-Alpes;AG Centre Est RhÌ«ne Alpin;REGION ALPES;1;5.6298849;46.2381265;
376;Nurieux;1;c;87743351;;NEX;1760;Nurieux-Volognat;01-267;Ain;RhÌ«ne-Alpes;AG Centre Est RhÌ«ne Alpin;REGION ALPES;1;5.5327486;46.1842195;
377;Cize - Bolozon;1;c;87743344;;CZQ;1250;Bolozon;01-051;Ain;RhÌ«ne-Alpes;AG Centre Est RhÌ«ne Alpin;REGION ALPES;1;5.4540677;46.2134803;
378;Simandre-sur-Suran;1;c;87743336;;SUS;1250;Simandre-sur-Suran;01-408;Ain;RhÌ«ne-Alpes;AG Centre Est RhÌ«ne Alpin;REGION ALPES;1;5.4210929;46.2202097;
379;Villereversure;1;c;87743328;;VEU;1250;Villereversure;01-447;Ain;RhÌ«ne-Alpes;AG Centre Est RhÌ«ne Alpin;REGION ALPES;1;5.3977089;46.1944145;
380;CeyzÌ©riat;1;c;87743302;;CZR;1250;CeyzÌ©riat;01-072;Ain;RhÌ«ne-Alpes;AG Centre Est RhÌ«ne Alpin;REGION ALPES;1;5.3258417;46.1834877;
381;Ambronay - Priay;1;c;87743146;;AAI;1500;Ambronay;01-007;Ain;RhÌ«ne-Alpes;AG Centre Est RhÌ«ne Alpin;REGION ALPES;1;5.3382579;46.0115941;
382;Pont-d'Ain;1;c;87743120;;PDA;1160;Pont-d'Ain;01-304;Ain;RhÌ«ne-Alpes;AG Centre Est RhÌ«ne Alpin;REGION ALPES;1;5.3343285;46.053961;
383;Saint-Martin-du-Mont;1;c;87743112;;XMM;1160;Saint-Martin-du-Mont;01-374;Ain;RhÌ«ne-Alpes;AG Centre Est RhÌ«ne Alpin;REGION ALPES;1;5.303003;46.095871;
384;Bourg-en-Bresse;1;a;87743005;;BGB;1000;Bourg-en-Bresse;01-053;Ain;RhÌ«ne-Alpes;AG Centre Est RhÌ«ne Alpin;REGION ALPES;2; 5.215063;46.200351;
385;Saint-Michel - Valloire;1;c;87742361;;SMI;73450;Saint-Michel-de-Maurienne;73-261;Savoie;RhÌ«ne-Alpes;AG Centre Est RhÌ«ne Alpin;REGION ALPES;1;6.4719135;45.216916;
386;Saint-Jean-de-Maurienne Arvan;1;b;87742320;;SJM;73300;Saint-Jean-de-Maurienne;73-248;Savoie;RhÌ«ne-Alpes;AG Centre Est RhÌ«ne Alpin;REGION ALPES;1;6.354716;45.277542;
388;Modane;1;b;87742007;;MOD;73500;Modane;73-157;Savoie;RhÌ«ne-Alpes;AG Centre Est RhÌ«ne Alpin;REGION ALPES;1;6.658161;45.193365;
389;Bourg-Saint-Maurice;1;a;87741793;;BSM;73700;Bourg-Saint-Maurice;73-054;Savoie;RhÌ«ne-Alpes;AG Centre Est RhÌ«ne Alpin;REGION ALPES;2; 6.771273;45.619036;
390;Landry;1;c;87741777;;LAY;73210;Landry;73-142;Savoie;RhÌ«ne-Alpes;AG Centre Est RhÌ«ne Alpin;REGION ALPES;1;6.7338182;45.5741713;
391;Aime - La Plagne;1;b;87741769;;ANJ;73210;Aime;73-006;Savoie;RhÌ«ne-Alpes;AG Centre Est RhÌ«ne Alpin;REGION ALPES;1;6.648646;45.554400;
392;MoÌÈtiers - Salins - Brides-les-Bains;1;a;87741728;;MOS;73600;MoÌÈtiers;73-181;Savoie;RhÌ«ne-Alpes;AG Centre Est RhÌ«ne Alpin;REGION ALPES;2; 6.531425;45.486344;
394;Notre-Dame de BrianÌ¤on;1;c;87741694;;NAB;73260;LÌ©chÌ¬re;73-187;Savoie;RhÌ«ne-Alpes;AG Centre Est RhÌ«ne Alpin;REGION ALPES;1;6.4687785;45.5393185;
395;Albertville;1;b;87741645;;ALV;73200;Albertville;73-011;Savoie;RhÌ«ne-Alpes;AG Centre Est RhÌ«ne Alpin;REGION ALPES;1;6.383167;45.672977;
396;Frontenex;1;c;87741629;;TFF;73460;Frontenex;73-121;Savoie;RhÌ«ne-Alpes;AG Centre Est RhÌ«ne Alpin;REGION ALPES;1;6.3140556;45.6305461;
397;GrÌ©sy-sur-IsÌ¬re;1;c;87741611;;TGG;73460;GrÌ©sy-sur-IsÌ¬re;73-129;Savoie;RhÌ«ne-Alpes;AG Centre Est RhÌ«ne Alpin;REGION ALPES;1;6.2588584;45.594432;
398;Virieu-le-Grand - Belley;1;c;87741504;;VRU;1510;Virieu-le-Grand;01-452;Ain;RhÌ«ne-Alpes;AG Centre Est RhÌ«ne Alpin;REGION ALPES;1;5.6536162;45.8482817;
399;Les Abrets - Fitilieu;1;c;87741496;;FII;38490;Fitilieu;38-165;IsÌ¬re;RhÌ«ne-Alpes;AG Centre Est RhÌ«ne Alpin;REGION ALPES;1;5.5754876;45.5421091;
400;Pont-de-Beauvoisin;1;b;87741470;;POB;38480;Pont-de-Beauvoisin;38-315;IsÌ¬re;RhÌ«ne-Alpes;AG Centre Est RhÌ«ne Alpin;REGION ALPES;1;5.680772;45.524636;
401;Saint-BÌ©ron - La Bridoire;1;c;87741454;;SBR;73520;Saint-BÌ©ron;73-226;Savoie;RhÌ«ne-Alpes;AG Centre Est RhÌ«ne Alpin;REGION ALPES;1;5.7319345;45.5038935;
403;LÌ©pin-le-Lac - La Bauche;1;c;87741439;;LPL;73610;LÌ©pin-le-Lac;73-145;Savoie;RhÌ«ne-Alpes;AG Centre Est RhÌ«ne Alpin;REGION ALPES;1;5.7649834;45.541519;
404;Aiguebelette-le-Lac;1;c;87741421;;AGQ;73610;Aiguebelette-le-Lac;73-001;Savoie;RhÌ«ne-Alpes;AG Centre Est RhÌ«ne Alpin;REGION ALPES;1;5.8131468;45.5363048;
405;Saint-Avre - La Chambre;1;c;87741306;;SVB;73130;Chambre;73-067;Savoie;RhÌ«ne-Alpes;AG Centre Est RhÌ«ne Alpin;REGION ALPES;1;6.3028277;45.3530978;
406;Ìäpierre - Saint-LÌ©ger;1;c;87741280;;MEE;73220;Ìäpierre;73-109;Savoie;RhÌ«ne-Alpes;AG Centre Est RhÌ«ne Alpin;REGION ALPES;1;6.292521;45.457027;
407;Aiguebelle;1;c;87741256;;AEB;73220;Aiguebelle;73-002;Savoie;RhÌ«ne-Alpes;AG Centre Est RhÌ«ne Alpin;REGION ALPES;1;6.3067175;45.5437225;
408;Chamousset;1;c;87741231;;CSK;73390;Chamousset;73-068;Savoie;RhÌ«ne-Alpes;AG Centre Est RhÌ«ne Alpin;REGION ALPES;1;6.2067432;45.5575744;
409;Saint-Pierre-d'Albigny;1;b;87741223;;SPA;73250;Saint-Pierre-d'Albigny;73-270;Savoie;RhÌ«ne-Alpes;AG Centre Est RhÌ«ne Alpin;REGION ALPES;1;6.156151;45.557397;
410;MontmÌ©lian;1;b;87741181;;MML;73800;MontmÌ©lian;73-171;Savoie;RhÌ«ne-Alpes;AG Centre Est RhÌ«ne Alpin;REGION ALPES;1;6.043289;45.503059;
411;Viviers-du-Lac;1;c;87741140;;VDX;73420;Viviers-du-Lac;73-328;Savoie;RhÌ«ne-Alpes;AG Centre Est RhÌ«ne Alpin;REGION ALPES;1;5.9033389;45.648502;
412;Aix-les-Bains le Revard;1;a;87741132;;AIX;73100;Aix-les-Bains;73-008;Savoie;RhÌ«ne-Alpes;AG Centre Est RhÌ«ne Alpin;REGION ALPES;2; 5.909371;45.688161;
413;Chindrieux;1;c;87741116;;CWX;73310;Chindrieux;73-085;Savoie;RhÌ«ne-Alpes;AG Centre Est RhÌ«ne Alpin;REGION ALPES;1;5.8468876;45.8034376;
414;Vions - Chanaz;1;c;87741108;;VOZ;73310;Vions;73-327;Savoie;RhÌ«ne-Alpes;AG Centre Est RhÌ«ne Alpin;REGION ALPES;1;5.8072311;45.8243131;
415;Culoz;1;b;87741074;;CUZ;1350;Culoz;01-138;Ain;RhÌ«ne-Alpes;AG Centre Est RhÌ«ne Alpin;REGION ALPES;1;5.778784;45.843264;
416;ChambÌ©ry - Challes-les-Eaux;1;a;87741009;;CRL;73010;ChambÌ©ry;73-065;Savoie;RhÌ«ne-Alpes;AG Centre Est RhÌ«ne Alpin;REGION ALPES;2; 5.919547;45.571302;
417;Massiac - Blesle;1;c;87734871;;MIA;15500;Massiac;15-119;Cantal;Auvergne;AG Centre Est RhÌ«ne Alpin;REGION AUVERGNE;1;3.1965518;45.2537695;
418;Retournac;1;c;87734749;;RET;43130;Retournac;43-162;Haute-Loire;Auvergne;AG Centre Est RhÌ«ne Alpin;REGION AUVERGNE;1;4.0361169;45.2013468;
419;ChamaliÌ¬res-sur-Loire;1;c;87734731;;CML;43800;ChamaliÌ¬res-sur-Loire;43-049;Haute-Loire;Auvergne;AG Centre Est RhÌ«ne Alpin;REGION AUVERGNE;1;3.9909202;45.2047385;
420;Vorey;1;c;87734723;;VOE;43800;Vorey;43-267;Haute-Loire;Auvergne;AG Centre Est RhÌ«ne Alpin;REGION AUVERGNE;1;3.911422;45.1829093;
421;Saint-Vincent le ChÌ¢teau;1;c;87734715;;SWC;43800;Beauzac;43-025;Haute-Loire;Auvergne;AG Centre Est RhÌ«ne Alpin;REGION AUVERGNE;1;3.9186273;45.1488794;
422;LavoÌÈte-sur-Loire;1;c;87734707;;LVL;43800;LavoÌÈte-sur-Loire;43-119;Haute-Loire;Auvergne;AG Centre Est RhÌ«ne Alpin;REGION AUVERGNE;1;3.9054101;45.1214503;
423;Le Puy-en-Velay;1;b;87734699;;LPU;43000;Puy-en-Velay;43-157;Haute-Loire;Auvergne;AG Centre Est RhÌ«ne Alpin;REGION AUVERGNE;1;3.892421;45.042866;
424;Darsac;1;c;87734673;;DAR;43270;Vernassal;43-259;Haute-Loire;Auvergne;AG Centre Est RhÌ«ne Alpin;REGION AUVERGNE;1;3.7365537;45.14211;
425;NoirÌ©table;1;c;87734509;;NOI;42440;NoirÌ©table;42-159;Loire;RhÌ«ne-Alpes;AG Centre Est RhÌ«ne Alpin;REGION RHONE-ALPES;1;3.7611423;45.816024;
426;Thiers;1;c;87734475;;THI;63300;Thiers;63-430;Puy-de-DÌ«me;Auvergne;AG Centre Est RhÌ«ne Alpin;REGION AUVERGNE;1;3.5431798;45.8610502;
427;Pont de Dore;1;c;87734459;;PDO;63920;Peschadoires;63-276;Puy-de-DÌ«me;Auvergne;AG Centre Est RhÌ«ne Alpin;REGION AUVERGNE;1;3.4903254;45.8427833;
428;Lezoux;1;c;87734442;;LEZ;63190;Lezoux;63-195;Puy-de-DÌ«me;Auvergne;AG Centre Est RhÌ«ne Alpin;REGION AUVERGNE;1;3.385986;45.8212175;
429;Vertaizon;1;b;87734426;;VTZ;63910;Vertaizon;63-453;Puy-de-DÌ«me;Auvergne;AG Centre Est RhÌ«ne Alpin;REGION AUVERGNE;1;3.288269;45.784543;
431;Luc;1;c;87734368;;LCZ;48250;Luc;48-086;LozÌ¬re;Languedoc-Roussillon;AG MÌ©diterranÌ©e;REGION LANGUEDOC-ROUSSILLON;1;3.8915631;44.654092;
432;Langogne;1;c;87734350;;LGG;48300;Langogne;48-080;LozÌ¬re;Languedoc-Roussillon;AG MÌ©diterranÌ©e;REGION LANGUEDOC-ROUSSILLON;1;3.8573047;44.732776;
433;Chapeauroux;1;c;87734343;;CPX;48600;Saint-Bonnet-de-Montauroux;48-139;LozÌ¬re;Languedoc-Roussillon;AG MÌ©diterranÌ©e;REGION AUVERGNE;1;3.741923;44.8380008;
434;Monistrol-d'Allier;1;c;87734335;;MNR;43580;Monistrol-d'Allier;43-136;Haute-Loire;Auvergne;AG Centre Est RhÌ«ne Alpin;REGION AUVERGNE;1;3.6500424;44.9696648;
435;Langeac;1;c;87734319;;LNG;43300;Langeac;43-112;Haute-Loire;Auvergne;AG Centre Est RhÌ«ne Alpin;REGION AUVERGNE;1;3.490672;45.10125;
436;Saint-Georges-d'Aurac;1;c;87734301;;SGA;43230;Paulhaguet;43-148;Haute-Loire;Auvergne;AG Centre Est RhÌ«ne Alpin;REGION AUVERGNE;1;3.4947035;45.1605341;
437;Paulhaguet;1;c;87734293;;PLH;43230;Paulhaguet;43-148;Haute-Loire;Auvergne;AG Centre Est RhÌ«ne Alpin;REGION AUVERGNE;1;3.5004445;45.2101978;
438;Brioude;1;c;87734269;;BRD;43100;Brioude;43-040;Haute-Loire;Auvergne;AG Centre Est RhÌ«ne Alpin;REGION AUVERGNE;1;3.3786344;45.3006493;
439;Arvant;1;c;87734251;;ARV;43360;Bournoncle-Saint-Pierre;43-038;Haute-Loire;Auvergne;AG Centre Est RhÌ«ne Alpin;REGION AUVERGNE;1;3.3106747;45.3653797;
440;Brassac-les-Mines - Sainte-Florine;1;b;87734244;;BLM;63570;Brassac-les-Mines;63-050;Puy-de-DÌ«me;Auvergne;AG Centre Est RhÌ«ne Alpin;REGION AUVERGNE;1;3.330167;45.414246;
441;Le Breuil-sur-Couze;1;c;87734228;;BCZ;63340;Breuil-sur-Couze;63-052;Puy-de-DÌ«me;Auvergne;AG Centre Est RhÌ«ne Alpin;REGION AUVERGNE;1;3.2621478;45.4670838;
442;Issoire;1;b;87734202;;ISS;63500;Issoire;63-178;Puy-de-DÌ«me;Auvergne;AG Centre Est RhÌ«ne Alpin;REGION AUVERGNE;1;3.253980;45.543884;
443;Parent - Coudes - Champeix;1;c;87734194;;PCC;63270;Parent;63-269;Puy-de-DÌ«me;Auvergne;AG Centre Est RhÌ«ne Alpin;REGION AUVERGNE;1;3.2178245;45.6139737;
444;Vic-le-Comte;1;b;87734186;;VLC;63270;Vic-le-Comte;63-457;Puy-de-DÌ«me;Auvergne;AG Centre Est RhÌ«ne Alpin;REGION AUVERGNE;1;3.207079;45.664911;
445;Les Martres-de-Veyre;1;b;87734178;;MVY;63730;Martres-de-Veyre;63-214;Puy-de-DÌ«me;Auvergne;AG Centre Est RhÌ«ne Alpin;REGION AUVERGNE;1;3.193228;45.688155;
446;Le Cendre - Orcet;1;b;87734160;;CZJ;63670;Cendre;63-069;Puy-de-DÌ«me;Auvergne;AG Centre Est RhÌ«ne Alpin;REGION AUVERGNE;1;3.188666;45.723796;
447;SarliÌ¬ve - Cournon;1;c;87734152;;SLC;63800;Cournon-d'Auvergne;63-124;Puy-de-DÌ«me;Auvergne;AG Centre Est RhÌ«ne Alpin;REGION AUVERGNE;1;3.1681196;45.7387697;
448;Aigueperse;1;c;87734129;;AGE;63260;Aigueperse;63-001;Puy-de-DÌ«me;Auvergne;AG Centre Est RhÌ«ne Alpin;REGION AUVERGNE;1;3.1982621;46.0147884;
449;Aubiat;1;c;87734111;;AUK;63260;Aubiat;63-013;Puy-de-DÌ«me;Auvergne;AG Centre Est RhÌ«ne Alpin;REGION AUVERGNE;1;3.1605115;45.983812;
450;Pontmort;1;c;87734103;;PMT;63200;Pessat-Villeneuve;63-278;Puy-de-DÌ«me;Auvergne;AG Centre Est RhÌ«ne Alpin;REGION AUVERGNE;1;3.1601248;45.939486;
451;Pont-du-ChÌ¢teau;1;c;87734087;;;63430;Pont-du-ChÌ¢teau;63-284;Puy-de-DÌ«me;Auvergne;AG Centre Est RhÌ«ne Alpin;REGION AUVERGNE;1;3.2377829;45.7885543;
452;Riom - ChÌ¢tel-Guyon;1;b;87734053;;RIO;63140;Riom;63-300;Puy-de-DÌ«me;Auvergne;AG Centre Est RhÌ«ne Alpin;REGION AUVERGNE;2;3.120498;45.889965;
453;Gerzat;1;c;87734046;;GEZ;63360;Gerzat;63-164;Puy-de-DÌ«me;Auvergne;AG Centre Est RhÌ«ne Alpin;REGION AUVERGNE;1;3.1431045;45.8335879;
454;Royat - ChamaliÌ¬res;1;c;87734038;;RYA;63130;Royat;63-308;Puy-de-DÌ«me;Auvergne;AG Centre Est RhÌ«ne Alpin;REGION AUVERGNE;1;3.0615022;45.7676495;
455;Clermont-Ferrand;1;a;87734004;;CLF;63000;Clermont-Ferrand;63-113;Puy-de-DÌ«me;Auvergne;AG Centre Est RhÌ«ne Alpin;REGION AUVERGNE;2; 3.100543;45.778945;
456;Gannat;1;c;87732404;;GAN;3800;Gannat;03-118;Allier;Auvergne;AG Centre Est RhÌ«ne Alpin;REGION AUVERGNE;1;3.2047514;46.0975964;
457;Saint-Germain-des-FossÌ©s;1;b;87732206;;SGF;3260;Saint-Germain-des-FossÌ©s;03-236;Allier;Auvergne;AG Centre Est RhÌ«ne Alpin;REGION AUVERGNE;1;3.430614;46.209185;
458;Vichy;1;a;87732008;;VHY;3200;Vichy;03-310;Allier;Auvergne;AG Centre Est RhÌ«ne Alpin;REGION AUVERGNE;2; 3.430448;46.126979;
459;Alleyras;1;c;87731885;;AES;43580;Alleyras;43-005;Haute-Loire;Auvergne;AG Centre Est RhÌ«ne Alpin;REGION AUVERGNE;1;3.673517;44.919217;
460;Lachaud Curmilhac;1;c;87731828;;LDQ;43013;Vissac-Auteyrac;43-013;Haute-Loire;Auvergne;AG Centre Est RhÌ«ne Alpin;REGION AUVERGNE;1;3.6104913;45.1228045;
461;Saint-Fons;1;c;87728501;;SFS;69190;Saint-Fons;69-199;RhÌ«ne;RhÌ«ne-Alpes;AG Centre Est RhÌ«ne Alpin;REGION RHONE-ALPES;1;4.8525663;45.7058114;
462;Saint-Ìätienne Carnot;1;b;87726901;;SEO;42000;Saint-Ìätienne;42-218;Loire;RhÌ«ne-Alpes;AG Centre Est RhÌ«ne Alpin;REGION RHONE-ALPES;1;4.385317;45.446976;
463;Montrond-les-Bains;1;b;87726885;;MRB;42210;Montrond-les-Bains;42-149;Loire;RhÌ«ne-Alpes;AG Centre Est RhÌ«ne Alpin;REGION RHONE-ALPES;1;4.248814;45.644429;
464;Feurs;1;b;87726877;;FEU;42110;Feurs;42-094;Loire;RhÌ«ne-Alpes;AG Centre Est RhÌ«ne Alpin;REGION RHONE-ALPES;1;4.230573;45.744156;
465;Balbigny;1;b;87726869;;BBY;42510;Balbigny;42-011;Loire;RhÌ«ne-Alpes;AG Centre Est RhÌ«ne Alpin;REGION RHONE-ALPES;1;4.187443;45.817858;
466;Saint-Jodard;1;c;87726851;;SNJ;42590;Saint-Jodard;42-241;Loire;RhÌ«ne-Alpes;AG Centre Est RhÌ«ne Alpin;REGION RHONE-ALPES;1;4.125231;45.8857125;
467;Le Coteau;1;b;87726828;;LCU;42120;Coteau;42-071;Loire;RhÌ«ne-Alpes;AG Centre Est RhÌ«ne Alpin;REGION RHONE-ALPES;1;4.086248;46.023984;
468;Roanne;1;b;87726802;;ROA;42300;Roanne;42-187;Loire;RhÌ«ne-Alpes;AG Centre Est RhÌ«ne Alpin;REGION RHONE-ALPES;2;4.063207;46.039383;
470;Pont de Lignon;1;c;87726786;;PJL;43430;Beauzac;43-025;Haute-Loire;Auvergne;AG Centre Est RhÌ«ne Alpin;REGION AUVERGNE;1;4.1372431;45.2597792;
471;Bas - Monistrol;1;b;87726778;;BMO;43120;Bas-en-Basset;43-020;Haute-Loire;Auvergne;AG Centre Est RhÌ«ne Alpin;REGION AUVERGNE;1;4.139602;45.297596;
472;Aurec;1;c;87726760;;AEC;43110;Aurec-sur-Loire;43-012;Haute-Loire;Auvergne;AG Centre Est RhÌ«ne Alpin;REGION AUVERGNE;1;4.1983439;45.3711611;
473;Fraisses - Unieux;1;c;87726737;;FRU;42490;Fraisses;42-099;Loire;RhÌ«ne-Alpes;AG Centre Est RhÌ«ne Alpin;REGION RHONE-ALPES;1;4.2610375;45.3948228;
474;Firminy;1;b;87726729;;FNY;42700;Firminy;42-095;Loire;RhÌ«ne-Alpes;AG Centre Est RhÌ«ne Alpin;REGION RHONE-ALPES;1;4.286430;45.391625;
475;Le Chambon-Feugerolles;1;c;87726711;;LCF;42500;Chambon-Feugerolles;42-044;Loire;RhÌ«ne-Alpes;AG Centre Est RhÌ«ne Alpin;REGION RHONE-ALPES;1;4.3223823;45.3947427;
476;La Ricamarie;1;c;87726703;;LRM;42150;Ricamarie;42-183;Loire;RhÌ«ne-Alpes;AG Centre Est RhÌ«ne Alpin;REGION RHONE-ALPES;1;4.360686;45.4041516;
477;BoÌÇn;1;c;87726471;;BOE;42130;BoÌÇn-sur-Lignon;42-019;Loire;RhÌ«ne-Alpes;AG Centre Est RhÌ«ne Alpin;REGION RHONE-ALPES;1;4.0051544;45.7413612;
478;Montbrison;1;b;87726448;;MOB;42600;Montbrison;42-147;Loire;RhÌ«ne-Alpes;AG Centre Est RhÌ«ne Alpin;REGION RHONE-ALPES;1;4.078282;45.604454;
479;Saint-Romain-le-Puy;1;c;87726430;;SRP;42610;Saint-Romain-le-Puy;42-285;Loire;RhÌ«ne-Alpes;AG Centre Est RhÌ«ne Alpin;REGION RHONE-ALPES;1;4.1208275;45.5545543;
480;Sury-le-Comtal;1;c;87726422;;SYC;42450;Sury-le-Comtal;42-304;Loire;RhÌ«ne-Alpes;AG Centre Est RhÌ«ne Alpin;REGION RHONE-ALPES;1;4.1824904;45.5291194;
481;Bonson;1;c;87726414;;BSN;42160;Bonson;42-022;Loire;RhÌ«ne-Alpes;AG Centre Est RhÌ«ne Alpin;REGION RHONE-ALPES;1;4.2163084;45.5221941;
482;AndrÌ©zieux;1;c;87726406;;ANZ;42160;AndrÌ©zieux-BouthÌ©on;42-005;Loire;RhÌ«ne-Alpes;AG Centre Est RhÌ«ne Alpin;REGION RHONE-ALPES;1;4.254834;45.5217037;
483;Rive-de-Gier;1;b;87726331;;RGR;42800;Rive-de-Gier;42-186;Loire;RhÌ«ne-Alpes;AG Centre Est RhÌ«ne Alpin;REGION RHONE-ALPES;1;4.606648;45.524324;
484;Saint-Chamond;1;b;87726307;;SCM;42400;Saint-Chamond;42-207;Loire;RhÌ«ne-Alpes;AG Centre Est RhÌ«ne Alpin;REGION RHONE-ALPES;1;4.51695;45.47257;
485;La Fouillouse;1;c;87726232;;LFI;42480;Fouillouse;42-097;Loire;RhÌ«ne-Alpes;AG Centre Est RhÌ«ne Alpin;REGION RHONE-ALPES;1;4.3170839;45.4977675;
486;BouthÌ©on;1;c;87726216;;BOH;42160;AndrÌ©zieux-BouthÌ©on;42-005;Loire;RhÌ«ne-Alpes;AG Centre Est RhÌ«ne Alpin;REGION RHONE-ALPES;1;4.2777187;45.5246289;
487;Veauche - Saint-Galmier;1;b;87726208;;SGL;42340;Veauche;42-323;Loire;RhÌ«ne-Alpes;AG Centre Est RhÌ«ne Alpin;REGION RHONE-ALPES;1;4.293438;45.565928;
488;Saint-Ìätienne Bellevue;1;b;87726190;;SEB;42000;Saint-Ìätienne;42-218;Loire;RhÌ«ne-Alpes;AG Centre Est RhÌ«ne Alpin;REGION RHONE-ALPES;1;4.392734;45.417128;
489;Saint-Ìätienne Le Clapier;1;c;87726174;;SEC;42000;Saint-Ìätienne;42-218;Loire;RhÌ«ne-Alpes;AG Centre Est RhÌ«ne Alpin;REGION RHONE-ALPES;1;4.3782267;45.4371122;
490;Saint-Ìätienne La Terrasse;1;b;87726158;;SET;42000;Saint-Ìätienne;42-218;Loire;RhÌ«ne-Alpes;AG Centre Est RhÌ«ne Alpin;REGION RHONE-ALPES;1;4.379601;45.464843;
491;Saint-Ìätienne ChÌ¢teaucreux;1;a;87726000;;SEN;42000;Saint-Ìätienne;42-218;Loire;RhÌ«ne-Alpes;AG Centre Est RhÌ«ne Alpin;REGION RHONE-ALPES;2; 4.399722;45.443366;
492;Ìächirolles;1;b;87725895;;EHR;38130;Ìächirolles;38-151;IsÌ¬re;RhÌ«ne-Alpes;AG Centre Est RhÌ«ne Alpin;REGION ALPES;1;5.718943;45.153022;
493;Polliat;1;c;87725846;;PLF;1310;Polliat;01-301;Ain;RhÌ«ne-Alpes;AG Centre Est RhÌ«ne Alpin;REGION ALPES;1;5.1238268;46.24464;
494;MÌ©zÌ©riat;1;c;87725838;;MZF;1660;MÌ©zÌ©riat;01-246;Ain;RhÌ«ne-Alpes;AG Centre Est RhÌ«ne Alpin;REGION ALPES;1;5.046622;46.2350502;
495;Vonnas;1;c;87725820;;VNS;1540;Vonnas;01-457;Ain;RhÌ«ne-Alpes;AG Centre Est RhÌ«ne Alpin;REGION ALPES;1;4.9916677;46.2272852;
497;Pont-de-Veyle;1;c;87725804;;PEL;1290;Pont-de-Veyle;01-306;Ain;RhÌ«ne-Alpes;AG Centre Est RhÌ«ne Alpin;REGION ALPES;1;4.8930347;46.2679114;
498;RomanÌ¬che-Thorins;1;c;87725739;;RHR;71570;RomanÌ¬che-Thorins;71-372;SaÌ«ne-et-Loire;Bourgogne;AG Centre Est RhÌ«ne Alpin;REGION RHONE-ALPES;1;4.7421014;46.1763913;
499;Pontanevaux;1;c;87725721;;PNX;71570;Chapelle-de-Guinchay;71-090;SaÌ«ne-et-Loire;Bourgogne;AG Centre Est RhÌ«ne Alpin;REGION BOURGOGNE FRANCHE-COMTE;1;4.7728891;46.2130321;
500;CrÌ»ches-sur-SaÌ«ne;1;c;87725713;;KSA;71680;CrÌ»ches-sur-SaÌ«ne;71-150;SaÌ«ne-et-Loire;Bourgogne;AG Centre Est RhÌ«ne Alpin;REGION BOURGOGNE FRANCHE-COMTE;1;4.7840233;46.2461762;
501;MÌ¢con LochÌ© TGV;1;a;87725705;;MLH;71000;MÌ¢con;71-270;SaÌ«ne-et-Loire;Bourgogne;AG Centre Est RhÌ«ne Alpin;REGION DE PARIS-SUD-EST;2; 4.778876;46.282884;
502;MÌ¢con;1;b;87725689;;MAC;71000;MÌ¢con;71-270;SaÌ«ne-et-Loire;Bourgogne;AG Centre Est RhÌ«ne Alpin;REGION BOURGOGNE FRANCHE-COMTE;2;4.824887;46.302572;
503;Senozan;1;c;87725671;;SOZ;71260;Senozan;71-513;SaÌ«ne-et-Loire;Bourgogne;AG Centre Est RhÌ«ne Alpin;REGION BOURGOGNE FRANCHE-COMTE;1;4.8710626;46.3921451;
504;Fleurville - Pont-de-Vaux;1;c;87725663;;FLV;71260;Fleurville;71-591;SaÌ«ne-et-Loire;Bourgogne;AG Centre Est RhÌ«ne Alpin;REGION BOURGOGNE FRANCHE-COMTE;1;4.8840722;46.4509279;
505;Tournus;1;b;87725622;;TOS;71700;Tournus;71-543;SaÌ«ne-et-Loire;Bourgogne;AG Centre Est RhÌ«ne Alpin;REGION BOURGOGNE FRANCHE-COMTE;1;4.906647;46.566680;
506;Sennecey-le-Grand;1;c;87725614;;SRD;71240;Sennecey-le-Grand;71-512;SaÌ«ne-et-Loire;Bourgogne;AG Centre Est RhÌ«ne Alpin;REGION BOURGOGNE FRANCHE-COMTE;1;4.874316;46.6406445;
507;Chalon-sur-SaÌ«ne;1;a;87725002;;CSS;71100;Chalon-sur-SaÌ«ne;71-076;SaÌ«ne-et-Loire;Bourgogne;AG Centre Est RhÌ«ne Alpin;REGION BOURGOGNE FRANCHE-COMTE;2; 4.843454;46.781612;
508;Servas - Lent;1;c;87723791;;SVN;1960;Servas;01-405;Ain;RhÌ«ne-Alpes;AG Centre Est RhÌ«ne Alpin;REGION RHONE-ALPES;1;5.1681312;46.1306663;
509;Saint-Paul-de-Varax;1;c;87723783;;SVX;1240;Saint-Paul-de-Varax;01-383;Ain;RhÌ«ne-Alpes;AG Centre Est RhÌ«ne Alpin;REGION RHONE-ALPES;1;5.1282046;46.1000331;
510;Marlieux - ChÌ¢tillon;1;c;87723767;;MXC;1240;Marlieux;01-235;Ain;RhÌ«ne-Alpes;AG Centre Est RhÌ«ne Alpin;REGION RHONE-ALPES;1;5.0731097;46.0638765;
511;Villars-les-Dombes;1;b;87723759;;VLD;1330;Villars-les-Dombes;01-443;Ain;RhÌ«ne-Alpes;AG Centre Est RhÌ«ne Alpin;REGION RHONE-ALPES;1;5.028404;46.004206;
512;Saint-Marcel en Dombes;1;c;87723742;;STM;1390;Saint-Marcel;01-371;Ain;RhÌ«ne-Alpes;AG Centre Est RhÌ«ne Alpin;REGION RHONE-ALPES;1;4.9775148;45.9503701;
513;Saint-AndrÌ©-de-Corcy;1;b;87723734;;SAY;1390;Saint-AndrÌ©-de-Corcy;01-333;Ain;RhÌ«ne-Alpes;AG Centre Est RhÌ«ne Alpin;REGION RHONE-ALPES;1;4.948846;45.925911;
514;Mionnay;1;c;87723726;;MIO;1390;Mionnay;01-248;Ain;RhÌ«ne-Alpes;AG Centre Est RhÌ«ne Alpin;REGION RHONE-ALPES;1;4.919752;45.8966784;
515;Les Ìächets;1;c;87723718;;ECH;1700;Miribel;01-249;Ain;RhÌ«ne-Alpes;AG Centre Est RhÌ«ne Alpin;REGION RHONE-ALPES;1;4.9108215;45.8746675;
516;Sathonay - Rillieux;1;b;87723700;;SYR;69580;Rillieux-la-Pape;69-286;RhÌ«ne;RhÌ«ne-Alpes;AG Centre Est RhÌ«ne Alpin;REGION RHONE-ALPES;1;4.875315;45.820264;
517;Meximieux - PÌ©rouges;1;b;87723585;;MEX;1800;Meximieux;01-244;Ain;RhÌ«ne-Alpes;AG Centre Est RhÌ«ne Alpin;REGION RHONE-ALPES;1;5.193534;45.901615;
518;La Valbonne;1;b;87723577;;VAO;1360;Balan;01-027;Ain;RhÌ«ne-Alpes;AG Centre Est RhÌ«ne Alpin;REGION RHONE-ALPES;1;5.124911;45.849225;
519;Montluel;1;b;87723569;;MLU;1120;Montluel;01-262;Ain;RhÌ«ne-Alpes;AG Centre Est RhÌ«ne Alpin;REGION RHONE-ALPES;1;5.057503;45.847770;
521;Beynost;1;b;87723544;;BNO;1700;Beynost;01-043;Ain;RhÌ«ne-Alpes;AG Centre Est RhÌ«ne Alpin;REGION RHONE-ALPES;1;5.006969;45.833915;
522;Saint-Maurice-de-Beynost;1;b;87723536;;SMY;1700;Saint-Maurice-de-Beynost;01-376;Ain;RhÌ«ne-Alpes;AG Centre Est RhÌ«ne Alpin;REGION RHONE-ALPES;1;4.976986;45.827421;
523;Miribel;1;b;87723528;;MIB;1700;Miribel;01-249;Ain;RhÌ«ne-Alpes;AG Centre Est RhÌ«ne Alpin;REGION RHONE-ALPES;1;4.953940;45.822088;
524;CrÌ©pieux la Pape;1;c;87723502;;CLP;69140;Rillieux-la-Pape;69-286;RhÌ«ne;RhÌ«ne-Alpes;AG Centre Est RhÌ«ne Alpin;REGION RHONE-ALPES;1;4.8922918;45.8038348;
525;Saint-AndrÌ©-le-Gaz;1;b;87723494;;SAG;38490;Saint-AndrÌ©-le-Gaz;38-357;IsÌ¬re;RhÌ«ne-Alpes;AG Centre Est RhÌ«ne Alpin;REGION ALPES;1;5.524187;45.544518;
526;La Tour-du-Pin;1;b;87723478;;LTP;38110;Tour-du-Pin;38-509;IsÌ¬re;RhÌ«ne-Alpes;AG Centre Est RhÌ«ne Alpin;REGION RHONE-ALPES;1;5.450092;45.560277;
527;Cessieu;1;c;87723452;;CIU;38110;Cessieu;38-064;IsÌ¬re;RhÌ«ne-Alpes;AG Centre Est RhÌ«ne Alpin;REGION RHONE-ALPES;1;5.3761179;45.5611596;
528;Bourgoin-Jallieu;1;b;87723429;;BRG;38300;Bourgoin-Jallieu;38-053;IsÌ¬re;RhÌ«ne-Alpes;AG Centre Est RhÌ«ne Alpin;REGION RHONE-ALPES;1;5.273401;45.583954;
529;La VerpilliÌ¬re;1;b;87723395;;VEI;38290;VerpilliÌ¬re;38-537;IsÌ¬re;RhÌ«ne-Alpes;AG Centre Est RhÌ«ne Alpin;REGION RHONE-ALPES;1;5.150866;45.627600;
530;Saint-Quentin-Fallavier;1;b;87723387;;SQF;38070;Saint-Quentin-Fallavier;38-449;IsÌ¬re;RhÌ«ne-Alpes;AG Centre Est RhÌ«ne Alpin;REGION RHONE-ALPES;1;5.099896;45.638109;
532;Saint-Priest;1;b;87723353;;SPR;69800;Saint-Priest;69-290;RhÌ«ne;RhÌ«ne-Alpes;AG Centre Est RhÌ«ne Alpin;REGION RHONE-ALPES;1;4.934242;45.686659;
533;VÌ©nissieux;1;b;87723320;;VSX;69200;VÌ©nissieux;69-259;RhÌ«ne;RhÌ«ne-Alpes;AG Centre Est RhÌ«ne Alpin;REGION RHONE-ALPES;1;4.888109;45.705551;
534;Lyon Part Dieu;1;a;87723197;;LYD;69003;Lyon;69-123;RhÌ«ne;RhÌ«ne-Alpes;AG Centre Est RhÌ«ne Alpin;REGION RHONE-ALPES;3; 4.859355;45.760559;
535;AlaÌø;1;c;87722744;;ALA;69340;Tassin-la-Demi-Lune;69-244;RhÌ«ne;RhÌ«ne-Alpes;AG Centre Est RhÌ«ne Alpin;REGION RHONE-ALPES;1;4.7717824;45.7521198;
536;Brignais;1;c;87722728;;BGN;69530;Brignais;69-027;RhÌ«ne;RhÌ«ne-Alpes;AG Centre Est RhÌ«ne Alpin;REGION RHONE-ALPES;1;4.7636596;45.6737721;
537;Chaponost;1;c;87722710;;CPT;69630;Chaponost;69-043;RhÌ«ne;RhÌ«ne-Alpes;AG Centre Est RhÌ«ne Alpin;REGION RHONE-ALPES;1;4.7643014;45.6984889;
538;Francheville;1;c;87722702;;FRW;69340;Francheville;69-089;RhÌ«ne;RhÌ«ne-Alpes;AG Centre Est RhÌ«ne Alpin;REGION RHONE-ALPES;1;4.7693729;45.7336473;
539;Le PÌ©age-de-Roussillon;1;b;87722678;;PGR;38550;PÌ©age-de-Roussillon;38-298;IsÌ¬re;RhÌ«ne-Alpes;AG Centre Est RhÌ«ne Alpin;REGION RHONE-ALPES;1;4.795402;45.371797;
540;Saint-Clair - Les Roches;1;b;87722652;;SKR;38370;Saint-Clair-du-RhÌ«ne;38-378;IsÌ¬re;RhÌ«ne-Alpes;AG Centre Est RhÌ«ne Alpin;REGION RHONE-ALPES;1;4.769707;45.450392;
541;Vienne;1;b;87722587;;VIE;38200;Vienne;38-544;IsÌ¬re;RhÌ«ne-Alpes;AG Centre Est RhÌ«ne Alpin;REGION RHONE-ALPES;1;4.874211;45.521207;
542;Estressin;1;c;87722579;;ESN;38200;Vienne;38-544;IsÌ¬re;RhÌ«ne-Alpes;AG Centre Est RhÌ«ne Alpin;REGION RHONE-ALPES;1;4.868273;45.540285;
543;Chasse-sur-RhÌ«ne;1;b;87722561;;CSR;38670;Chasse-sur-RhÌ«ne;38-087;IsÌ¬re;RhÌ«ne-Alpes;AG Centre Est RhÌ«ne Alpin;REGION RHONE-ALPES;1;4.794843;45.582370;
545;SÌ©rÌ©zin;1;b;87722546;;SZN;69360;SÌ©rÌ©zin-du-RhÌ«ne;69-294;RhÌ«ne;RhÌ«ne-Alpes;AG Centre Est RhÌ«ne Alpin;REGION RHONE-ALPES;1;4.818060;45.627160;
546;Feyzin;1;c;87722538;;FEY;69320;Feyzin;69-276;RhÌ«ne;RhÌ«ne-Alpes;AG Centre Est RhÌ«ne Alpin;REGION RHONE-ALPES;1;4.8531349;45.6658584;
547;Givors Canal;1;c;87722439;;GIC;69700;Givors;69-091;RhÌ«ne;RhÌ«ne-Alpes;AG Centre Est RhÌ«ne Alpin;REGION RHONE-ALPES;1;4.7725754;45.5957662;
548;Givors;1;b;87722405;;GIV;69700;Givors;69-091;RhÌ«ne;RhÌ«ne-Alpes;AG Centre Est RhÌ«ne Alpin;REGION RHONE-ALPES;1;4.766086;45.584948;
549;Grigny le Sablon;1;c;87722298;;LSB;69520;Grigny;69-096;RhÌ«ne;RhÌ«ne-Alpes;AG Centre Est RhÌ«ne Alpin;REGION RHONE-ALPES;1;4.796144;45.6072601;
550;Vernaison;1;c;87722264;;VNI;69390;Vernaison;69-260;RhÌ«ne;RhÌ«ne-Alpes;AG Centre Est RhÌ«ne Alpin;REGION RHONE-ALPES;1;4.8132908;45.6456478;
551;Pierre-BÌ©nite;1;c;87722231;;PRB;69310;Pierre-BÌ©nite;69-152;RhÌ«ne;RhÌ«ne-Alpes;AG Centre Est RhÌ«ne Alpin;REGION RHONE-ALPES;1;4.8245059;45.7066772;
552;Oullins;1;c;87722207;;OUL;69600;Oullins;69-149;RhÌ«ne;RhÌ«ne-Alpes;AG Centre Est RhÌ«ne Alpin;REGION RHONE-ALPES;1;4.8135793;45.7166261;
553;Lyon Perrache;1;a;87722025;;LPR;69286;Lyon;69-123;RhÌ«ne;RhÌ«ne-Alpes;AG Centre Est RhÌ«ne Alpin;REGION RHONE-ALPES;3; 4.825733;45.748476;
555;Lamure-sur-Azergues;1;c;87721860;;LAZ;69870;Lamure-sur-Azergues;69-107;RhÌ«ne;RhÌ«ne-Alpes;AG Centre Est RhÌ«ne Alpin;REGION RHONE-ALPES;1;4.4921137;46.0610834;
556;Chamelet;1;c;87721829;;CWE;69620;Chamelet;69-039;RhÌ«ne;RhÌ«ne-Alpes;AG Centre Est RhÌ«ne Alpin;REGION RHONE-ALPES;1;4.5069346;45.9816414;
558;Bois-d'Oingt - LÌ©gny;1;c;87721787;;BDO;69620;LÌ©gny;69-111;RhÌ«ne;RhÌ«ne-Alpes;AG Centre Est RhÌ«ne Alpin;REGION RHONE-ALPES;1;4.575043;45.9065839;
559;Chessy;1;c;87721761;;CZI;69380;Chessy;69-056;RhÌ«ne;RhÌ«ne-Alpes;AG Centre Est RhÌ«ne Alpin;REGION RHONE-ALPES;1;4.6222625;45.885545;
560;ChÌ¢tillon d'Azergues;1;c;87721753;;CDZ;69380;ChÌ¢tillon;69-050;RhÌ«ne;RhÌ«ne-Alpes;AG Centre Est RhÌ«ne Alpin;REGION RHONE-ALPES;1;4.6451164;45.8751815;
561;Civrieux-d'Azergues;1;c;87721746;;CZK;69380;Civrieux-d'Azergues;69-059;RhÌ«ne;RhÌ«ne-Alpes;AG Centre Est RhÌ«ne Alpin;REGION RHONE-ALPES;1;4.7182413;45.8591831;
562;Dommartin - Lissieu;1;c;87721738;;DLU;69380;Dommartin;69-076;RhÌ«ne;RhÌ«ne-Alpes;AG Centre Est RhÌ«ne Alpin;REGION RHONE-ALPES;1;4.7344831;45.8397811;
563;Les FlachÌ¬res;1;c;87721704;;FLD;69260;CharbonniÌ¬res-les-Bains;69-044;RhÌ«ne;RhÌ«ne-Alpes;AG Centre Est RhÌ«ne Alpin;REGION RHONE-ALPES;1;4.7541523;45.7774345;
564;Sain-Bel;1;c;87721605;;SBL;69210;Sain-Bel;69-171;RhÌ«ne;RhÌ«ne-Alpes;AG Centre Est RhÌ«ne Alpin;REGION RHONE-ALPES;1;4.6012445;45.811097;
565;Fleurieux-sur-l'Arbresle;1;c;87721563;;FSL;69210;Fleurieux-sur-l'Arbresle;69-086;RhÌ«ne;RhÌ«ne-Alpes;AG Centre Est RhÌ«ne Alpin;REGION RHONE-ALPES;1;4.6603815;45.8449944;
566;Lentilly;1;b;87721555;;LTY;69210;Lentilly;69-112;RhÌ«ne;RhÌ«ne-Alpes;AG Centre Est RhÌ«ne Alpin;REGION RHONE-ALPES;1;4.667103;45.821630;
567;La Tour-de-Salvagny;1;c;87721548;;TSW;69890;Tour-de-Salvagny;69-250;RhÌ«ne;RhÌ«ne-Alpes;AG Centre Est RhÌ«ne Alpin;REGION RHONE-ALPES;1;4.7164921;45.7998818;
568;CharbonniÌ¬res-les-Bains;1;b;87721530;;CRB;69260;CharbonniÌ¬res-les-Bains;69-044;RhÌ«ne;RhÌ«ne-Alpes;AG Centre Est RhÌ«ne Alpin;REGION RHONE-ALPES;1;4.735912;45.782142;
569;Le MÌ©ridien La FerriÌ¬re;1;c;87721522;;WER;69260;Tassin-la-Demi-Lune;69-244;RhÌ«ne;RhÌ«ne-Alpes;AG Centre Est RhÌ«ne Alpin;REGION RHONE-ALPES;1;4.7484432;45.7684995;
570;Tassin;1;b;87721514;;TAS;69160;Tassin-la-Demi-Lune;69-244;RhÌ«ne;RhÌ«ne-Alpes;AG Centre Est RhÌ«ne Alpin;REGION RHONE-ALPES;1;;;
571;Ìäcully la Demi-Lune;1;c;87721506;;ECY;69130;Tassin-la-Demi-Lune;69-244;RhÌ«ne;RhÌ«ne-Alpes;AG Centre Est RhÌ«ne Alpin;REGION RHONE-ALPES;1;4.7795238;45.7657162;
572;Dardilly les Mouilles;1;c;87721480;;DDY;69570;Dardilly;69-072;RhÌ«ne;RhÌ«ne-Alpes;AG Centre Est RhÌ«ne Alpin;REGION RHONE-ALPES;1;4.7600288;45.7967409;
573;Tarare;1;b;87721472;;TAR;69170;Tarare;69-243;RhÌ«ne;RhÌ«ne-Alpes;AG Centre Est RhÌ«ne Alpin;REGION RHONE-ALPES;1;4.439208;45.889921;
574;Pontcharra - Saint-Forgeux;1;c;87721464;;PNF;69490;Pontcharra-sur-Turdine;69-157;RhÌ«ne;RhÌ«ne-Alpes;AG Centre Est RhÌ«ne Alpin;REGION RHONE-ALPES;1;4.4927781;45.8714911;
575;Saint-Romain-de-Popey;1;c;87721456;;SNP;69490;Saint-Romain-de-Popey;69-234;RhÌ«ne;RhÌ«ne-Alpes;AG Centre Est RhÌ«ne Alpin;REGION RHONE-ALPES;1;4.5423351;45.8616053;
576;Dardilly le Jubin;1;c;87721449;;DDJ;69570;Dardilly;69-072;RhÌ«ne;RhÌ«ne-Alpes;AG Centre Est RhÌ«ne Alpin;REGION RHONE-ALPES;1;4.7613451;45.815143;
577;L'Arbresle;1;b;87721431;;LBL;69210;Arbresle;69-010;RhÌ«ne;RhÌ«ne-Alpes;AG Centre Est RhÌ«ne Alpin;REGION RHONE-ALPES;1;4.618319;45.833299;
578;Lozanne;1;b;87721423;;LOZ;69380;Lozanne;69-121;RhÌ«ne;RhÌ«ne-Alpes;AG Centre Est RhÌ«ne Alpin;REGION RHONE-ALPES;1;4.681501;45.854140;
579;Chazay - Marcilly;1;c;87721415;;CZM;69380;Marcilly-d'Azergues;69-125;RhÌ«ne;RhÌ«ne-Alpes;AG Centre Est RhÌ«ne Alpin;REGION RHONE-ALPES;1;4.7252221;45.8729618;
580;Belleville sur SÌ¢one;1;b;87721357;;BVL;69220;Belleville;69-019;RhÌ«ne;RhÌ«ne-Alpes;AG Centre Est RhÌ«ne Alpin;REGION RHONE-ALPES;1;4.729028;46.111917;
581;Saint-Georges-de-Reneins;1;c;87721340;;SDI;69830;Saint-Georges-de-Reneins;69-206;RhÌ«ne;RhÌ«ne-Alpes;AG Centre Est RhÌ«ne Alpin;REGION RHONE-ALPES;1;4.7188908;46.0621952;
582;Villefranche-sur-SaÌ«ne;1;b;87721332;;VIS;69400;Villefranche-sur-SaÌ«ne;69-264;RhÌ«ne;RhÌ«ne-Alpes;AG Centre Est RhÌ«ne Alpin;REGION RHONE-ALPES;1;4.72077;45.98450;
583;Anse;1;b;87721324;;ANS;69480;Anse;69-009;RhÌ«ne;RhÌ«ne-Alpes;AG Centre Est RhÌ«ne Alpin;REGION RHONE-ALPES;1;4.719807;45.939304;
584;Quincieux;1;c;87721290;;QUX;69650;Quincieux;69-163;RhÌ«ne;RhÌ«ne-Alpes;AG Centre Est RhÌ«ne Alpin;REGION RHONE-ALPES;1;4.7785643;45.9068815;
585;Saint-Germain-au-Mont-d'Or;1;b;87721282;;SGO;69650;Saint-Germain-au-Mont-d'Or;69-207;RhÌ«ne;RhÌ«ne-Alpes;AG Centre Est RhÌ«ne Alpin;REGION RHONE-ALPES;1;4.804265;45.888352;
586;Albigny - Neuville;1;b;87721266;;VVN;69250;Albigny-sur-SaÌ«ne;69-003;RhÌ«ne;RhÌ«ne-Alpes;AG Centre Est RhÌ«ne Alpin;REGION RHONE-ALPES;1;4.832874;45.874921;
587;Couzon-au-Mont-d'Or;1;c;87721241;;KMD;69270;Couzon-au-Mont-d'Or;69-068;RhÌ«ne;RhÌ«ne-Alpes;AG Centre Est RhÌ«ne Alpin;REGION RHONE-ALPES;1;4.8294786;45.8486737;
588;Collonges - Fontaines;1;c;87721225;;COF;69660;Collonges-au-Mont-d'Or;69-063;RhÌ«ne;RhÌ«ne-Alpes;AG Centre Est RhÌ«ne Alpin;REGION RHONE-ALPES;1;4.8466136;45.8291102;
589;Lyon Gorge de Loup;1;b;87721175;;LYL;69009;Lyon;69-123;RhÌ«ne;RhÌ«ne-Alpes;AG Centre Est RhÌ«ne Alpin;REGION RHONE-ALPES;1;4.804631;45.766078;
590;Lyon Saint-Paul;1;b;87721159;;LSP;69005;Lyon;69-123;RhÌ«ne;RhÌ«ne-Alpes;AG Centre Est RhÌ«ne Alpin;REGION RHONE-ALPES;1;4.827057;45.766010;
591;RÌ©gny;1;c;87721050;;RGY;42630;RÌ©gny;42-181;Loire;RhÌ«ne-Alpes;AG Centre Est RhÌ«ne Alpin;REGION RHONE-ALPES;1;4.2150753;45.987705;
592;Saint-Victor - Thizy;1;c;87721043;;SVH;42630;Saint-Victor-sur-Rhins;42-293;Loire;RhÌ«ne-Alpes;AG Centre Est RhÌ«ne Alpin;REGION RHONE-ALPES;1;4.2810245;46.0024781;
593;Amplepuis;1;b;87721035;;AMP;69550;Amplepuis;69-006;RhÌ«ne;RhÌ«ne-Alpes;AG Centre Est RhÌ«ne Alpin;REGION RHONE-ALPES;1;4.326844;45.970982;
594;Lyon Vaise;1;b;87721001;;LVI;69009;Lyon;69-123;RhÌ«ne;RhÌ«ne-Alpes;AG Centre Est RhÌ«ne Alpin;REGION RHONE-ALPES;1;4.803960;45.779938;
595;Montbarrey;1;c;87718866;;MXB;39380;Montbarrey;39-350;Jura;Franche-ComtÌ©;AG Centre Est RhÌ«ne Alpin;REGION BOURGOGNE FRANCHE-COMTE;1;5.6366081;47.0359922;
596;Arc-et-Senans;1;c;87718841;;ACA;25610;Arc-et-Senans;25-021;Doubs;Franche-ComtÌ©;AG Centre Est RhÌ«ne Alpin;REGION BOURGOGNE FRANCHE-COMTE;1;5.7767843;47.0303516;
597;Mouchard;1;b;87718833;;MCD;39330;Mouchard;39-370;Jura;Franche-ComtÌ©;AG Centre Est RhÌ«ne Alpin;REGION BOURGOGNE FRANCHE-COMTE;1;5.799644;46.976911;
598;Morteau;1;b;87718619;;MTO;25500;Morteau;25-411;Doubs;Franche-ComtÌ©;AG Centre Est RhÌ«ne Alpin;REGION BOURGOGNE FRANCHE-COMTE;1;6.604653;47.053727;
599;Le Valdahon Camp Militaire;1;c;87718601;;;25800;Valdahon;25-578;Doubs;Franche-ComtÌ©;AG Centre Est RhÌ«ne Alpin;REGION BOURGOGNE FRANCHE-COMTE;1;6.3148621;47.1510452;
600;Gilley;1;c;87718577;;GIL;25650;Gilley;25-271;Doubs;Franche-ComtÌ©;AG Centre Est RhÌ«ne Alpin;REGION BOURGOGNE FRANCHE-COMTE;1;6.4925676;47.0500626;
601;Avoudrey;1;c;87718551;;AVO;25690;Avoudrey;25-039;Doubs;Franche-ComtÌ©;AG Centre Est RhÌ«ne Alpin;REGION BOURGOGNE FRANCHE-COMTE;1;6.434573;47.1298359;
602;Le Valdahon;1;b;87718544;;LVN;25800;Valdahon;25-578;Doubs;Franche-ComtÌ©;AG Centre Est RhÌ«ne Alpin;REGION BOURGOGNE FRANCHE-COMTE;1;6.342275;47.149750;
603;Ìätalans;1;c;87718536;;EAS;25580;Ìätalans;25-222;Doubs;Franche-ComtÌ©;AG Centre Est RhÌ«ne Alpin;REGION BOURGOGNE FRANCHE-COMTE;1;6.2706173;47.155884;
604;L'HÌ«pital-du-Grosbois;1;c;87718528;;LHO;25620;HÌ«pital-du-Grosbois;25-305;Doubs;Franche-ComtÌ©;AG Centre Est RhÌ«ne Alpin;REGION BOURGOGNE FRANCHE-COMTE;1;6.2130861;47.1691016;
605;Mamirolle;1;c;87718510;;MIJ;25620;Mamirolle;25-364;Doubs;Franche-ComtÌ©;AG Centre Est RhÌ«ne Alpin;REGION BOURGOGNE FRANCHE-COMTE;1;6.1617411;47.1998712;
606;SaÌ«ne;1;c;87718502;;SAZ;25660;SaÌ«ne;25-532;Doubs;Franche-ComtÌ©;AG Centre Est RhÌ«ne Alpin;REGION BOURGOGNE FRANCHE-COMTE;1;6.1013089;47.2097669;
607;Baume-les-Dames;1;b;87718460;;BDA;25110;Baume-les-Dames;25-047;Doubs;Franche-ComtÌ©;AG Centre Est RhÌ«ne Alpin;REGION BOURGOGNE FRANCHE-COMTE;1;6.359603;47.353937;
608;Laissey;1;c;87718437;;LJY;25820;Laissey;25-323;Doubs;Franche-ComtÌ©;AG Centre Est RhÌ«ne Alpin;REGION BOURGOGNE FRANCHE-COMTE;1;6.23304;47.298723;
609;Deluz;1;c;87718429;;DLZ;25960;Deluz;25-197;Doubs;Franche-ComtÌ©;AG Centre Est RhÌ«ne Alpin;REGION BOURGOGNE FRANCHE-COMTE;1;6.199733;47.2925132;
610;Novillars;1;c;87718411;;NOV;25220;Novillars;25-429;Doubs;Franche-ComtÌ©;AG Centre Est RhÌ«ne Alpin;REGION BOURGOGNE FRANCHE-COMTE;1;6.1327011;47.2839618;
611;Roche-lez-BeauprÌ©;1;c;87718403;;RBE;25220;Roche-lez-BeauprÌ©;25-495;Doubs;Franche-ComtÌ©;AG Centre Est RhÌ«ne Alpin;REGION BOURGOGNE FRANCHE-COMTE;1;6.1109651;47.2762881;
612;Orchamps;1;c;87718361;;ORA;39700;Orchamps;39-396;Jura;Franche-ComtÌ©;AG Centre Est RhÌ«ne Alpin;REGION BOURGOGNE FRANCHE-COMTE;1;5.659147;47.1500962;
613;Ranchot;1;c;87718338;;RNH;39700;Ranchot;39-451;Jura;Franche-ComtÌ©;AG Centre Est RhÌ«ne Alpin;REGION BOURGOGNE FRANCHE-COMTE;1;5.7246607;47.1525633;
614;Saint-Vit;1;b;87718320;;SVI;25410;Saint-Vit;25-527;Doubs;Franche-ComtÌ©;AG Centre Est RhÌ«ne Alpin;REGION BOURGOGNE FRANCHE-COMTE;1;5.809057;47.183507;
615;Dannemarie - Velesmes;1;c;87718312;;DNV;25410;Dannemarie-sur-CrÌ¬te;25-195;Doubs;Franche-ComtÌ©;AG Centre Est RhÌ«ne Alpin;REGION BOURGOGNE FRANCHE-COMTE;1;5.8738348;47.2038599;
616;Franois;1;c;87718304;;FOI;25770;Franois;25-258;Doubs;Franche-ComtÌ©;AG Centre Est RhÌ«ne Alpin;REGION BOURGOGNE FRANCHE-COMTE;1;5.937498;47.2273609;
617;Saint-Amour;1;c;87718296;;SAR;39160;Saint-Amour;39-475;Jura;Franche-ComtÌ©;AG Centre Est RhÌ«ne Alpin;REGION BOURGOGNE FRANCHE-COMTE;1;5.3341853;46.4338244;
618;Cousance;1;c;87718270;;CSJ;39190;Cousance;39-173;Jura;Franche-ComtÌ©;AG Centre Est RhÌ«ne Alpin;REGION BOURGOGNE FRANCHE-COMTE;1;5.3868216;46.5353569;
619;Lons-le-Saunier;1;b;87718239;;LLS;39000;Lons-le-Saunier;39-300;Jura;Franche-ComtÌ©;AG Centre Est RhÌ«ne Alpin;REGION BOURGOGNE FRANCHE-COMTE;1;5.551108;46.668580;
620;Domblans - Voiteur;1;c;87718213;;DBV;39210;Domblans;39-199;Jura;Franche-ComtÌ©;AG Centre Est RhÌ«ne Alpin;REGION BOURGOGNE FRANCHE-COMTE;1;5.5977462;46.7627809;
621;Saint-Lothain;1;c;87718197;;XLN;39230;Saint-Lothain;39-489;Jura;Franche-ComtÌ©;AG Centre Est RhÌ«ne Alpin;REGION BOURGOGNE FRANCHE-COMTE;1;5.6439849;46.8231806;
622;Poligny;1;c;87718189;;PGN;39800;Poligny;39-434;Jura;Franche-ComtÌ©;AG Centre Est RhÌ«ne Alpin;REGION BOURGOGNE FRANCHE-COMTE;1;5.7001051;46.8443393;
623;Arbois;1;c;87718155;;AOI;39600;Arbois;39-013;Jura;Franche-ComtÌ©;AG Centre Est RhÌ«ne Alpin;REGION BOURGOGNE FRANCHE-COMTE;1;5.7648273;46.912509;
624;Liesle;1;c;87718130;;LJL;25440;Liesle;25-336;Doubs;Franche-ComtÌ©;AG Centre Est RhÌ«ne Alpin;REGION BOURGOGNE FRANCHE-COMTE;1;5.8208121;47.0587683;
625;Byans;1;c;87718122;;BYB;25320;Byans-sur-Doubs;25-105;Doubs;Franche-ComtÌ©;AG Centre Est RhÌ«ne Alpin;REGION BOURGOGNE FRANCHE-COMTE;1;5.8520589;47.1185334;
626;Torpes - BoussiÌ¬res;1;c;87718114;;;25320;Torpes;25-564;Doubs;Franche-ComtÌ©;AG Centre Est RhÌ«ne Alpin;REGION BOURGOGNE FRANCHE-COMTE;1;5.8887804;47.1637546;
627;Montferrand - Thoraise;1;c;87718106;;MFH;25320;Montferrand-le-ChÌ¢teau;25-397;Doubs;Franche-ComtÌ©;AG Centre Est RhÌ«ne Alpin;REGION BOURGOGNE FRANCHE-COMTE;1;5.9074815;47.1847414;
629;BesanÌ¤on MouillÌ¬re;1;b;87718015;;BNM;25000;BesanÌ¤on;25-056;Doubs;Franche-ComtÌ©;AG Centre Est RhÌ«ne Alpin;REGION BOURGOGNE FRANCHE-COMTE;1;6.033910;47.240372;
630;BesanÌ¤on Viotte;1;a;87718007;;BNV;25000;BesanÌ¤on;25-056;Doubs;Franche-ComtÌ©;AG Centre Est RhÌ«ne Alpin;REGION BOURGOGNE FRANCHE-COMTE;2;6.022003;47.247019;
631;Morez;1;c;87715441;;MRZ;39400;Morez;39-368;Jura;Franche-ComtÌ©;AG Centre Est RhÌ«ne Alpin;REGION BOURGOGNE FRANCHE-COMTE;1;6.023578;46.5262166;
632;Morbier;1;c;87715433;;MKE;39400;Morbier;39-367;Jura;Franche-ComtÌ©;AG Centre Est RhÌ«ne Alpin;REGION BOURGOGNE FRANCHE-COMTE;1;6.0176446;46.5392164;
633;Saint-Laurent-en-Grandvaux;1;c;87715417;;SLJ;39150;Saint-Laurent-en-Grandvaux;39-487;Jura;Franche-ComtÌ©;AG Centre Est RhÌ«ne Alpin;REGION BOURGOGNE FRANCHE-COMTE;1;5.9512119;46.5747975;
634;La Chaumusse - Fort-du-Plasne;1;c;87715391;;WFP;39150;Chaumusse;39-126;Jura;Franche-ComtÌ©;AG Centre Est RhÌ«ne Alpin;REGION BOURGOGNE FRANCHE-COMTE;1;5.9613342;46.6048753;
635;La Chaux-des-Crotenay;1;c;87715383;;LXR;39230;Chaux-des-Crotenay;39-129;Jura;Franche-ComtÌ©;AG Centre Est RhÌ«ne Alpin;REGION BOURGOGNE FRANCHE-COMTE;1;5.9438595;46.6545926;
636;Champagnole;1;c;87715326;;CPG;39300;Champagnole;39-097;Jura;Franche-ComtÌ©;AG Centre Est RhÌ«ne Alpin;REGION BOURGOGNE FRANCHE-COMTE;1;5.9100314;46.7492981;
637;Sainte-Colombe;1;c;87715151;;XCB;25300;Sainte-Colombe;25-515;Doubs;Franche-ComtÌ©;AG Centre Est RhÌ«ne Alpin;REGION BOURGOGNE FRANCHE-COMTE;1;6.2659748;46.879207;
638;La RiviÌ¬re;1;c;87715144;;RIW;25560;RiviÌ¬re-Drugeon;25-493;Doubs;Franche-ComtÌ©;AG Centre Est RhÌ«ne Alpin;REGION BOURGOGNE FRANCHE-COMTE;1;6.2133331;46.8701507;
639;Frasne;1;b;87715136;;FRA;25560;Frasne;25-259;Doubs;Franche-ComtÌ©;AG Centre Est RhÌ«ne Alpin;REGION BOURGOGNE FRANCHE-COMTE;1;6.157767;46.857596;
640;Andelot;1;c;87715102;;AND;39320;Andelot-en-Montagne;39-009;Jura;Franche-ComtÌ©;AG Centre Est RhÌ«ne Alpin;REGION BOURGOGNE FRANCHE-COMTE;1;5.923584;46.8594671;
641;Pontarlier;1;b;87715003;;PTL;25300;Pontarlier;25-462;Doubs;Franche-ComtÌ©;AG Centre Est RhÌ«ne Alpin;REGION BOURGOGNE FRANCHE-COMTE;1;6.353524;46.900944;
642;Is-sur-Tille;1;b;87713859;;IST;21120;Is-sur-Tille;21-317;CÌ«te-d'Or;Bourgogne;AG Centre Est RhÌ«ne Alpin;REGION BOURGOGNE FRANCHE-COMTE;1;5.129481;47.520454;
643;Gemeaux;1;c;87713842;;GMX;21120;Gemeaux;21-290;CÌ«te-d'Or;Bourgogne;AG Centre Est RhÌ«ne Alpin;REGION BOURGOGNE FRANCHE-COMTE;1;5.1293074;47.478542;
644;Saint-Julien - ClÌ©nay;1;c;87713834;;SJQ;21490;Saint-Julien;21-555;CÌ«te-d'Or;Bourgogne;AG Centre Est RhÌ«ne Alpin;REGION BOURGOGNE FRANCHE-COMTE;1;5.1281864;47.4060132;
645;Ruffey;1;c;87713826;;RFY;21200;Ruffey-lÌ¬s-Echirey;21-535;CÌ«te-d'Or;Bourgogne;AG Centre Est RhÌ«ne Alpin;REGION BOURGOGNE FRANCHE-COMTE;1;5.079358;47.370587;
646;Louhans;1;c;87713735;;LHN;71500;Louhans;71-263;SaÌ«ne-et-Loire;Bourgogne;AG Centre Est RhÌ«ne Alpin;REGION BOURGOGNE FRANCHE-COMTE;1;5.2174853;46.6309;
647;Mervans;1;c;87713701;;MRV;71310;Mervans;71-295;SaÌ«ne-et-Loire;Bourgogne;AG Centre Est RhÌ«ne Alpin;REGION BOURGOGNE FRANCHE-COMTE;1;5.1794099;46.7988928;
648;Seurre;1;c;87713677;;SEU;21250;Seurre;21-607;CÌ«te-d'Or;Bourgogne;AG Centre Est RhÌ«ne Alpin;REGION BOURGOGNE FRANCHE-COMTE;1;5.1513121;46.9964114;
649;Pagny;1;c;87713669;;PYK;21250;Pagny-le-ChÌ¢teau;21-475;CÌ«te-d'Or;Bourgogne;AG Centre Est RhÌ«ne Alpin;REGION BOURGOGNE FRANCHE-COMTE;1;5.2010538;47.0462492;
650;Saint-Jean-de-Losne;1;c;87713651;;SJL;21170;Saint-Jean-de-Losne;21-554;CÌ«te-d'Or;Bourgogne;AG Centre Est RhÌ«ne Alpin;REGION BOURGOGNE FRANCHE-COMTE;1;5.2441226;47.0997302;
651;Brazey-en-Plaine;1;c;87713644;;BEP;21470;Brazey-en-Plaine;21-103;CÌ«te-d'Or;Bourgogne;AG Centre Est RhÌ«ne Alpin;REGION BOURGOGNE FRANCHE-COMTE;1;5.2121276;47.1314549;
652;Aiserey;1;c;87713636;;ASI;21110;Aiserey;21-005;CÌ«te-d'Or;Bourgogne;AG Centre Est RhÌ«ne Alpin;REGION BOURGOGNE FRANCHE-COMTE;1;5.1582447;47.170501;
653;Saulon;1;c;87713628;;SLN;21910;BreteniÌ¬re;21-106;CÌ«te-d'Or;Bourgogne;AG Centre Est RhÌ«ne Alpin;REGION BOURGOGNE FRANCHE-COMTE;1;5.1045991;47.224035;
654;Santenay les Bains;1;c;87713594;;SLB;21590;Santenay;21-582;CÌ«te-d'Or;Bourgogne;AG Centre Est RhÌ«ne Alpin;REGION BOURGOGNE FRANCHE-COMTE;1;4.7017523;46.9106752;
655;Fontaines - Mercurey;1;c;87713586;;FAE;71150;Fontaines;71-202;SaÌ«ne-et-Loire;Bourgogne;AG Centre Est RhÌ«ne Alpin;REGION BOURGOGNE FRANCHE-COMTE;1;4.7750693;46.8512109;
656;Chagny;1;b;87713578;;CHY;71150;Chagny;71-073;SaÌ«ne-et-Loire;Bourgogne;AG Centre Est RhÌ«ne Alpin;REGION BOURGOGNE FRANCHE-COMTE;1;4.749682;46.907269;
657;Meursault;1;c;87713560;;MAT;21190;Meursault;21-412;CÌ«te-d'Or;Bourgogne;AG Centre Est RhÌ«ne Alpin;REGION BOURGOGNE FRANCHE-COMTE;1;4.7954444;46.9690497;
